{
"type": "FeatureCollection",
"features": [
{ "type": "Feature", "properties": { "city": "Абаза", "18": null, "19": null, "21": 54.0, "27": null, "33": null, "4": null, "6": null }, "geometry": { "type": "Point", "coordinates": [ 90.088581, 52.651662 ] } },
{ "type": "Feature", "properties": { "city": "Абакан", "18": null, "19": 103.0, "21": 230.0, "27": null, "33": 260.0, "4": null, "6": 1031.0 }, "geometry": { "type": "Point", "coordinates": [ 91.442396, 53.721152 ] } },
{ "type": "Feature", "properties": { "city": "Абдулино", "18": null, "19": null, "21": 99.0, "27": null, "33": null, "4": null, "6": null }, "geometry": { "type": "Point", "coordinates": [ 53.654989, 53.683962 ] } },
{ "type": "Feature", "properties": { "city": "Абинск", "18": null, "19": null, "21": null, "27": null, "33": 159.0, "4": null, "6": null }, "geometry": { "type": "Point", "coordinates": [ 38.151288, 44.866237 ] } },
{ "type": "Feature", "properties": { "city": "Азнакаево", "18": null, "19": 60.0, "21": null, "27": null, "33": null, "4": null, "6": null }, "geometry": { "type": "Point", "coordinates": [ 53.079923, 54.858233 ] } },
{ "type": "Feature", "properties": { "city": "Азов", "18": null, "19": null, "21": null, "27": 212.0, "33": null, "4": null, "6": null }, "geometry": { "type": "Point", "coordinates": [ 39.423581, 47.112448 ] } },
{ "type": "Feature", "properties": { "city": "Айхал", "18": null, "19": null, "21": 41.0, "27": null, "33": null, "4": null, "6": null }, "geometry": { "type": "Point", "coordinates": [ 111.502199, 65.942105 ] } },
{ "type": "Feature", "properties": { "city": "Ак-Довурак", "18": null, "19": null, "21": 86.0, "27": null, "33": null, "4": null, "6": null }, "geometry": { "type": "Point", "coordinates": [ 90.601061, 51.19084 ] } },
{ "type": "Feature", "properties": { "city": "Акбулак", "18": null, "19": 50.0, "21": null, "27": null, "33": null, "4": null, "6": null }, "geometry": { "type": "Point", "coordinates": [ 55.619263, 51.004293 ] } },
{ "type": "Feature", "properties": { "city": "Аксай", "18": null, "19": 73.0, "21": null, "27": null, "33": null, "4": null, "6": null }, "geometry": { "type": "Point", "coordinates": [ 39.862283, 47.269914 ] } },
{ "type": "Feature", "properties": { "city": "Алапаевск", "18": null, "19": 126.0, "21": null, "27": null, "33": null, "4": null, "6": null }, "geometry": { "type": "Point", "coordinates": [ 61.694524, 57.852511 ] } },
{ "type": "Feature", "properties": { "city": "Алатырь", "18": null, "19": 106.0, "21": 105.0, "27": null, "33": null, "4": null, "6": null }, "geometry": { "type": "Point", "coordinates": [ 46.591949, 54.840526 ] } },
{ "type": "Feature", "properties": { "city": "Алдан", "18": 62.0, "19": null, "21": 82.0, "27": null, "33": null, "4": null, "6": null }, "geometry": { "type": "Point", "coordinates": [ 125.388878, 58.608597 ] } },
{ "type": "Feature", "properties": { "city": "Алейск", "18": null, "19": 77.0, "21": null, "27": null, "33": null, "4": null, "6": null }, "geometry": { "type": "Point", "coordinates": [ 82.779457, 52.492167 ] } },
{ "type": "Feature", "properties": { "city": "Александров", "18": null, "19": 102.0, "21": 116.0, "27": null, "33": 225.0, "4": null, "6": null }, "geometry": { "type": "Point", "coordinates": [ 38.727621, 56.397774 ] } },
{ "type": "Feature", "properties": { "city": "Александровск", "18": null, "19": 43.0, "21": null, "27": null, "33": null, "4": null, "6": null }, "geometry": { "type": "Point", "coordinates": [ 57.584669, 59.16293 ] } },
{ "type": "Feature", "properties": { "city": "Александровское", "18": null, "19": 104.0, "21": null, "27": null, "33": null, "4": null, "6": null }, "geometry": { "type": "Point", "coordinates": [ 43.005048, 44.710525 ] } },
{ "type": "Feature", "properties": { "city": "Александровское", "18": null, "19": 104.0, "21": null, "27": null, "33": null, "4": null, "6": null }, "geometry": { "type": "Point", "coordinates": [ 77.868475, 60.426124 ] } },
{ "type": "Feature", "properties": { "city": "Алексеевское", "18": null, "19": 164.0, "21": null, "27": null, "33": null, "4": null, "6": null }, "geometry": { "type": "Point", "coordinates": [ 50.107272, 55.303248 ] } },
{ "type": "Feature", "properties": { "city": "Алексин", "18": 124.0, "19": null, "21": 147.0, "27": null, "33": null, "4": null, "6": null }, "geometry": { "type": "Point", "coordinates": [ 37.066034, 54.502429 ] } },
{ "type": "Feature", "properties": { "city": "Алтайское", "18": null, "19": 117.0, "21": null, "27": null, "33": null, "4": null, "6": null }, "geometry": { "type": "Point", "coordinates": [ 85.338182, 51.952237 ] } },
{ "type": "Feature", "properties": { "city": "Альметьевск", "18": null, "19": 113.0, "21": 5690.0, "27": 353.0, "33": 416.0, "4": null, "6": null }, "geometry": { "type": "Point", "coordinates": [ 52.29723, 54.901171 ] } },
{ "type": "Feature", "properties": { "city": "Амурск", "18": 77.0, "19": null, "21": 64.0, "27": null, "33": null, "4": null, "6": null }, "geometry": { "type": "Point", "coordinates": [ 136.910607, 50.226797 ] } },
{ "type": "Feature", "properties": { "city": "Анадырь", "18": null, "19": 17.0, "21": 17.0, "27": null, "33": null, "4": null, "6": null }, "geometry": { "type": "Point", "coordinates": [ 177.518913, 64.735814 ] } },
{ "type": "Feature", "properties": { "city": "Анапа", "18": null, "19": 359.0, "21": 112.0, "27": null, "33": 223.0, "4": null, "6": null }, "geometry": { "type": "Point", "coordinates": [ 37.316367, 44.894818 ] } },
{ "type": "Feature", "properties": { "city": "Ангарск", "18": 2011.0, "19": null, "21": null, "27": null, "33": null, "4": null, "6": null }, "geometry": { "type": "Point", "coordinates": [ 103.888249, 52.544358 ] } },
{ "type": "Feature", "properties": { "city": "Анжеро-Судженск", "18": 140.0, "19": 167.0, "21": 186.0, "27": null, "33": 89.0, "4": null, "6": null }, "geometry": { "type": "Point", "coordinates": [ 86.018216, 56.08318 ] } },
{ "type": "Feature", "properties": { "city": "Анна", "18": null, "19": 52.0, "21": null, "27": null, "33": null, "4": null, "6": null }, "geometry": { "type": "Point", "coordinates": [ 40.426317, 51.485932 ] } },
{ "type": "Feature", "properties": { "city": "Апатиты", "18": null, "19": 74.0, "21": 1047.0, "27": null, "33": null, "4": 199.0, "6": 138.0 }, "geometry": { "type": "Point", "coordinates": [ 33.407187, 67.568023 ] } },
{ "type": "Feature", "properties": { "city": "Апшеронск", "18": null, "19": null, "21": 72.0, "27": null, "33": null, "4": null, "6": null }, "geometry": { "type": "Point", "coordinates": [ 39.727095, 44.465535 ] } },
{ "type": "Feature", "properties": { "city": "Аргаяш", "18": null, "19": null, "21": null, "27": null, "33": null, "4": null, "6": null }, "geometry": { "type": "Point", "coordinates": [ 60.877695, 55.490728 ] } },
{ "type": "Feature", "properties": { "city": "Ардатов", "18": null, "19": 101.0, "21": null, "27": null, "33": null, "4": null, "6": null }, "geometry": { "type": "Point", "coordinates": [ 46.241192, 54.84656 ] } },
{ "type": "Feature", "properties": { "city": "Ардатов", "18": null, "19": 101.0, "21": null, "27": null, "33": null, "4": null, "6": null }, "geometry": { "type": "Point", "coordinates": [ 43.095885, 55.239147 ] } },
{ "type": "Feature", "properties": { "city": "Арзамас", "18": null, "19": 204.0, "21": null, "27": null, "33": 657.0, "4": null, "6": null }, "geometry": { "type": "Point", "coordinates": [ 43.814133, 55.386799 ] } },
{ "type": "Feature", "properties": { "city": "Армавир", "18": 135.0, "19": 233.0, "21": 1260.0, "27": null, "33": 372.0, "4": null, "6": null }, "geometry": { "type": "Point", "coordinates": [ 41.129644, 44.997655 ] } },
{ "type": "Feature", "properties": { "city": "Армянск", "18": 134.0, "19": null, "21": null, "27": null, "33": null, "4": null, "6": null }, "geometry": { "type": "Point", "coordinates": [ 33.691315, 46.110727 ] } },
{ "type": "Feature", "properties": { "city": "Арсеньев", "18": null, "19": 89.0, "21": null, "27": 30.0, "33": null, "4": null, "6": null }, "geometry": { "type": "Point", "coordinates": [ 133.268729, 44.163345 ] } },
{ "type": "Feature", "properties": { "city": "Артем", "18": null, "19": 115.0, "21": 134.0, "27": null, "33": null, "4": null, "6": null }, "geometry": { "type": "Point", "coordinates": [ 132.180339, 43.353047 ] } },
{ "type": "Feature", "properties": { "city": "Архангельск", "18": 1044.0, "19": 1801.0, "21": 6478.0, "27": 455.0, "33": 1451.0, "4": 492.0, "6": 985.0 }, "geometry": { "type": "Point", "coordinates": [ 40.515762, 64.539911 ] } },
{ "type": "Feature", "properties": { "city": "Асбест", "18": null, "19": 110.0, "21": 140.0, "27": null, "33": null, "4": null, "6": null }, "geometry": { "type": "Point", "coordinates": [ 61.461474, 57.014317 ] } },
{ "type": "Feature", "properties": { "city": "Асино", "18": null, "19": 62.0, "21": null, "27": null, "33": null, "4": null, "6": null }, "geometry": { "type": "Point", "coordinates": [ 86.153906, 56.997519 ] } },
{ "type": "Feature", "properties": { "city": "Астрахань", "18": 3133.0, "19": 1655.0, "21": 5774.0, "27": null, "33": 6403.0, "4": 1431.0, "6": 3167.0 }, "geometry": { "type": "Point", "coordinates": [ 48.030178, 46.347614 ] } },
{ "type": "Feature", "properties": { "city": "Ахтубинск", "18": null, "19": 73.0, "21": null, "27": null, "33": null, "4": null, "6": null }, "geometry": { "type": "Point", "coordinates": [ 46.164422, 48.284884 ] } },
{ "type": "Feature", "properties": { "city": "Ахтырский", "18": null, "19": null, "21": 134.0, "27": null, "33": null, "4": null, "6": null }, "geometry": { "type": "Point", "coordinates": [ 38.299825, 44.85036 ] } },
{ "type": "Feature", "properties": { "city": "Ачинск", "18": 170.0, "19": 206.0, "21": 31.0, "27": null, "33": null, "4": null, "6": null }, "geometry": { "type": "Point", "coordinates": [ 90.49524, 56.269501 ] } },
{ "type": "Feature", "properties": { "city": "Багдарин", "18": null, "19": null, "21": 76.0, "27": null, "33": null, "4": null, "6": null }, "geometry": { "type": "Point", "coordinates": [ 113.592031, 54.443937 ] } },
{ "type": "Feature", "properties": { "city": "Базарный Карабулак", "18": null, "19": null, "21": 80.0, "27": null, "33": null, "4": null, "6": null }, "geometry": { "type": "Point", "coordinates": [ 46.408495, 52.279892 ] } },
{ "type": "Feature", "properties": { "city": "Бакал", "18": null, "19": 37.0, "21": 41.0, "27": null, "33": null, "4": null, "6": null }, "geometry": { "type": "Point", "coordinates": [ 58.80918, 54.938064 ] } },
{ "type": "Feature", "properties": { "city": "Балаково", "18": 821.0, "19": 164.0, "21": null, "27": 566.0, "33": null, "4": null, "6": null }, "geometry": { "type": "Point", "coordinates": [ 47.819676, 52.01843 ] } },
{ "type": "Feature", "properties": { "city": "Балашиха", "18": 150.0, "19": null, "21": null, "27": null, "33": null, "4": null, "6": 648.0 }, "geometry": { "type": "Point", "coordinates": [ 37.938118, 55.797007 ] } },
{ "type": "Feature", "properties": { "city": "Балашов", "18": null, "19": null, "21": 110.0, "27": null, "33": 283.0, "4": null, "6": null }, "geometry": { "type": "Point", "coordinates": [ 43.146478, 51.554601 ] } },
{ "type": "Feature", "properties": { "city": "Балгазын", "18": null, "19": 62.0, "21": null, "27": null, "33": null, "4": null, "6": null }, "geometry": { "type": "Point", "coordinates": [ 95.171761, 50.998047 ] } },
{ "type": "Feature", "properties": { "city": "Баранчинский", "18": null, "19": null, "21": 54.0, "27": null, "33": null, "4": null, "6": null }, "geometry": { "type": "Point", "coordinates": [ 59.696581, 58.162281 ] } },
{ "type": "Feature", "properties": { "city": "Барда", "18": null, "19": 28.0, "21": 35.0, "27": null, "33": null, "4": null, "6": null }, "geometry": { "type": "Point", "coordinates": [ 55.591451, 56.927192 ] } },
{ "type": "Feature", "properties": { "city": "Барнаул", "18": 3128.0, "19": 5502.0, "21": 2728.0, "27": 1249.0, "33": 3714.0, "4": 2939.0, "6": 4297.0 }, "geometry": { "type": "Point", "coordinates": [ 83.776856, 53.346785 ] } },
{ "type": "Feature", "properties": { "city": "Батайск", "18": null, "19": 127.0, "21": null, "27": null, "33": null, "4": null, "6": null }, "geometry": { "type": "Point", "coordinates": [ 39.744469, 47.138333 ] } },
{ "type": "Feature", "properties": { "city": "Бежецк", "18": null, "19": 90.0, "21": null, "27": null, "33": null, "4": null, "6": null }, "geometry": { "type": "Point", "coordinates": [ 36.693188, 57.781318 ] } },
{ "type": "Feature", "properties": { "city": "Безенчук", "18": null, "19": 106.0, "21": null, "27": null, "33": null, "4": null, "6": null }, "geometry": { "type": "Point", "coordinates": [ 49.433212, 52.984398 ] } },
{ "type": "Feature", "properties": { "city": "Белая Глина", "18": null, "19": 72.0, "21": null, "27": null, "33": null, "4": null, "6": null }, "geometry": { "type": "Point", "coordinates": [ 40.871333, 46.073671 ] } },
{ "type": "Feature", "properties": { "city": "Белгород", "18": 3918.0, "19": 3959.0, "21": 5519.0, "27": 2208.0, "33": 12604.0, "4": 947.0, "6": 2111.0 }, "geometry": { "type": "Point", "coordinates": [ 36.587277, 50.595414 ] } },
{ "type": "Feature", "properties": { "city": "Белебей", "18": null, "19": 5.0, "21": null, "27": null, "33": null, "4": null, "6": null }, "geometry": { "type": "Point", "coordinates": [ 54.110111, 54.103214 ] } },
{ "type": "Feature", "properties": { "city": "Белово", "18": null, "19": null, "21": 1660.0, "27": 189.0, "33": null, "4": null, "6": null }, "geometry": { "type": "Point", "coordinates": [ 86.303701, 54.42212 ] } },
{ "type": "Feature", "properties": { "city": "Белокуриха", "18": null, "19": 47.0, "21": null, "27": null, "33": null, "4": null, "6": null }, "geometry": { "type": "Point", "coordinates": [ 84.983968, 51.996077 ] } },
{ "type": "Feature", "properties": { "city": "Белорецк", "18": null, "19": null, "21": null, "27": 120.0, "33": null, "4": null, "6": null }, "geometry": { "type": "Point", "coordinates": [ 58.410023, 53.967621 ] } },
{ "type": "Feature", "properties": { "city": "Белореченск", "18": 94.0, "19": 98.0, "21": 132.0, "27": null, "33": 550.0, "4": null, "6": null }, "geometry": { "type": "Point", "coordinates": [ 39.86849, 44.766017 ] } },
{ "type": "Feature", "properties": { "city": "Белоярский", "18": null, "19": 76.0, "21": null, "27": null, "33": null, "4": null, "6": null }, "geometry": { "type": "Point", "coordinates": [ 66.667597, 63.716043 ] } },
{ "type": "Feature", "properties": { "city": "Белоярский", "18": null, "19": 76.0, "21": null, "27": null, "33": null, "4": null, "6": null }, "geometry": { "type": "Point", "coordinates": [ 61.393211, 56.750981 ] } },
{ "type": "Feature", "properties": { "city": "Бердск", "18": 200.0, "19": 164.0, "21": null, "27": null, "33": null, "4": null, "6": null }, "geometry": { "type": "Point", "coordinates": [ 83.107135, 54.758288 ] } },
{ "type": "Feature", "properties": { "city": "Березники", "18": 1351.0, "19": 170.0, "21": 657.0, "27": null, "33": null, "4": null, "6": null }, "geometry": { "type": "Point", "coordinates": [ 56.806719, 59.407024 ] } },
{ "type": "Feature", "properties": { "city": "Березовский", "18": 68.0, "19": 125.0, "21": 140.0, "27": null, "33": null, "4": null, "6": null }, "geometry": { "type": "Point", "coordinates": [ 60.816457, 56.909583 ] } },
{ "type": "Feature", "properties": { "city": "Березовский", "18": 68.0, "19": 125.0, "21": 140.0, "27": null, "33": null, "4": null, "6": null }, "geometry": { "type": "Point", "coordinates": [ 86.274523, 55.669361 ] } },
{ "type": "Feature", "properties": { "city": "Бея", "18": null, "19": null, "21": 62.0, "27": null, "33": null, "4": null, "6": null }, "geometry": { "type": "Point", "coordinates": [ 90.920592, 53.045567 ] } },
{ "type": "Feature", "properties": { "city": "Бийск", "18": 1373.0, "19": 1495.0, "21": 588.0, "27": null, "33": 445.0, "4": null, "6": 312.0 }, "geometry": { "type": "Point", "coordinates": [ 85.220656, 52.541811 ] } },
{ "type": "Feature", "properties": { "city": "Билибино", "18": null, "19": 20.0, "21": null, "27": null, "33": null, "4": null, "6": null }, "geometry": { "type": "Point", "coordinates": [ 166.451139, 68.057129 ] } },
{ "type": "Feature", "properties": { "city": "Биробиджан", "18": null, "19": 54.0, "21": 79.0, "27": null, "33": null, "4": null, "6": null }, "geometry": { "type": "Point", "coordinates": [ 132.924746, 48.78992 ] } },
{ "type": "Feature", "properties": { "city": "Бирск", "18": null, "19": 240.0, "21": 105.0, "27": null, "33": 663.0, "4": 927.0, "6": 1027.0 }, "geometry": { "type": "Point", "coordinates": [ 55.530716, 55.417531 ] } },
{ "type": "Feature", "properties": { "city": "Бирюч", "18": null, "19": null, "21": null, "27": 79.0, "33": null, "4": null, "6": null }, "geometry": { "type": "Point", "coordinates": [ 38.40023, 50.649337 ] } },
{ "type": "Feature", "properties": { "city": "Благовещенка", "18": null, "19": 65.0, "21": 58.0, "27": null, "33": null, "4": null, "6": null }, "geometry": { "type": "Point", "coordinates": [ 79.868718, 52.833975 ] } },
{ "type": "Feature", "properties": { "city": "Благовещенск", "18": 1346.0, "19": 5425.0, "21": 4577.0, "27": 91.0, "33": 359.0, "4": 1337.0, "6": 1163.0 }, "geometry": { "type": "Point", "coordinates": [ 55.955224, 55.049854 ] } },
{ "type": "Feature", "properties": { "city": "Благовещенск", "18": 1346.0, "19": 5425.0, "21": 4577.0, "27": 91.0, "33": 359.0, "4": 1337.0, "6": 1163.0 }, "geometry": { "type": "Point", "coordinates": [ 127.534611, 50.257456 ] } },
{ "type": "Feature", "properties": { "city": "Благодарный", "18": null, "19": 121.0, "21": null, "27": null, "33": null, "4": null, "6": null }, "geometry": { "type": "Point", "coordinates": [ 43.44003, 45.095656 ] } },
{ "type": "Feature", "properties": { "city": "Богданович", "18": 62.0, "19": null, "21": null, "27": null, "33": null, "4": null, "6": null }, "geometry": { "type": "Point", "coordinates": [ 62.057129, 56.773977 ] } },
{ "type": "Feature", "properties": { "city": "Богородицк", "18": null, "19": 61.0, "21": 88.0, "27": null, "33": null, "4": null, "6": null }, "geometry": { "type": "Point", "coordinates": [ 38.131696, 53.770699 ] } },
{ "type": "Feature", "properties": { "city": "Богучаны", "18": null, "19": 39.0, "21": null, "27": null, "33": null, "4": null, "6": null }, "geometry": { "type": "Point", "coordinates": [ 97.445128, 58.379901 ] } },
{ "type": "Feature", "properties": { "city": "Бодайбо", "18": null, "19": null, "21": 133.0, "27": null, "33": null, "4": null, "6": null }, "geometry": { "type": "Point", "coordinates": [ 114.199867, 57.847975 ] } },
{ "type": "Feature", "properties": { "city": "Болгар", "18": null, "19": 62.0, "21": null, "27": null, "33": null, "4": null, "6": null }, "geometry": { "type": "Point", "coordinates": [ 49.022628, 54.982239 ] } },
{ "type": "Feature", "properties": { "city": "Большая Атня", "18": null, "19": 52.0, "21": null, "27": null, "33": null, "4": null, "6": null }, "geometry": { "type": "Point", "coordinates": [ 49.451978, 56.250707 ] } },
{ "type": "Feature", "properties": { "city": "Большая Глушица", "18": null, "19": null, "21": 49.0, "27": null, "33": null, "4": null, "6": null }, "geometry": { "type": "Point", "coordinates": [ 50.471907, 52.392769 ] } },
{ "type": "Feature", "properties": { "city": "Большое Болдино", "18": null, "19": 30.0, "21": null, "27": null, "33": null, "4": null, "6": null }, "geometry": { "type": "Point", "coordinates": [ 45.310861, 55.00359 ] } },
{ "type": "Feature", "properties": { "city": "Большое Нагаткино", "18": null, "19": 47.0, "21": null, "27": null, "33": null, "4": null, "6": null }, "geometry": { "type": "Point", "coordinates": [ 47.97415, 54.515946 ] } },
{ "type": "Feature", "properties": { "city": "Большой Камень", "18": null, "19": null, "21": null, "27": 131.0, "33": null, "4": null, "6": null }, "geometry": { "type": "Point", "coordinates": [ 132.350345, 43.111725 ] } },
{ "type": "Feature", "properties": { "city": "Бор", "18": null, "19": 113.0, "21": null, "27": null, "33": null, "4": null, "6": null }, "geometry": { "type": "Point", "coordinates": [ 44.064575, 56.356522 ] } },
{ "type": "Feature", "properties": { "city": "Бор", "18": null, "19": 113.0, "21": null, "27": null, "33": null, "4": null, "6": null }, "geometry": { "type": "Point", "coordinates": [ 33.792357, 59.473563 ] } },
{ "type": "Feature", "properties": { "city": "Борзя", "18": null, "19": 103.0, "21": null, "27": null, "33": null, "4": null, "6": null }, "geometry": { "type": "Point", "coordinates": [ 116.527042, 50.391551 ] } },
{ "type": "Feature", "properties": { "city": "Борисоглебск", "18": null, "19": 108.0, "21": 128.0, "27": null, "33": 234.0, "4": null, "6": null }, "geometry": { "type": "Point", "coordinates": [ 42.075183, 51.366308 ] } },
{ "type": "Feature", "properties": { "city": "Борисоглебский", "18": null, "19": 64.0, "21": null, "27": null, "33": null, "4": null, "6": null }, "geometry": { "type": "Point", "coordinates": [ 39.153323, 57.260969 ] } },
{ "type": "Feature", "properties": { "city": "Боровичи", "18": 105.0, "19": null, "21": null, "27": null, "33": 113.0, "4": null, "6": null }, "geometry": { "type": "Point", "coordinates": [ 33.910459, 58.390115 ] } },
{ "type": "Feature", "properties": { "city": "Бочкари", "18": null, "19": 75.0, "21": null, "27": null, "33": null, "4": null, "6": null }, "geometry": { "type": "Point", "coordinates": [ 85.764433, 52.884926 ] } },
{ "type": "Feature", "properties": { "city": "Братск", "18": 120.0, "19": 156.0, "21": null, "27": 588.0, "33": 455.0, "4": null, "6": null }, "geometry": { "type": "Point", "coordinates": [ 101.633505, 56.151682 ] } },
{ "type": "Feature", "properties": { "city": "Брюховецкая", "18": null, "19": 94.0, "21": 224.0, "27": null, "33": null, "4": null, "6": null }, "geometry": { "type": "Point", "coordinates": [ 38.997295, 45.802003 ] } },
{ "type": "Feature", "properties": { "city": "Брянск", "18": 263.0, "19": 1182.0, "21": 766.0, "27": 2190.0, "33": 1160.0, "4": 623.0, "6": 953.0 }, "geometry": { "type": "Point", "coordinates": [ 34.363991, 53.2434 ] } },
{ "type": "Feature", "properties": { "city": "Бугульма", "18": 575.0, "19": 181.0, "21": 277.0, "27": null, "33": 189.0, "4": null, "6": null }, "geometry": { "type": "Point", "coordinates": [ 52.798634, 54.541877 ] } },
{ "type": "Feature", "properties": { "city": "Бугуруслан", "18": null, "19": null, "21": 426.0, "27": null, "33": null, "4": null, "6": null }, "geometry": { "type": "Point", "coordinates": [ 52.432606, 53.6523 ] } },
{ "type": "Feature", "properties": { "city": "Буденновск", "18": 89.0, "19": 103.0, "21": null, "27": null, "33": 23.0, "4": null, "6": null }, "geometry": { "type": "Point", "coordinates": [ 44.165024, 44.781528 ] } },
{ "type": "Feature", "properties": { "city": "Бузулук", "18": null, "19": null, "21": 564.0, "27": null, "33": 271.0, "4": null, "6": 210.0 }, "geometry": { "type": "Point", "coordinates": [ 52.263292, 52.787097 ] } },
{ "type": "Feature", "properties": { "city": "Буй", "18": null, "19": null, "21": 120.0, "27": null, "33": null, "4": null, "6": null }, "geometry": { "type": "Point", "coordinates": [ 41.533113, 58.481724 ] } },
{ "type": "Feature", "properties": { "city": "Бутурлиновка", "18": null, "19": 180.0, "21": null, "27": null, "33": null, "4": null, "6": null }, "geometry": { "type": "Point", "coordinates": [ 40.584825, 50.835367 ] } },
{ "type": "Feature", "properties": { "city": "Вахруши", "18": null, "19": 65.0, "21": null, "27": null, "33": null, "4": null, "6": null }, "geometry": { "type": "Point", "coordinates": [ 50.026415, 58.684661 ] } },
{ "type": "Feature", "properties": { "city": "Великие Луки", "18": null, "19": null, "21": null, "27": null, "33": 154.0, "4": null, "6": null }, "geometry": { "type": "Point", "coordinates": [ 30.515671, 56.343703 ] } },
{ "type": "Feature", "properties": { "city": "Великий Новгород", "18": 171.0, "19": 30.0, "21": 351.0, "27": 60.0, "33": 1136.0, "4": 777.0, "6": 1053.0 }, "geometry": { "type": "Point", "coordinates": [ 31.269816, 58.522857 ] } },
{ "type": "Feature", "properties": { "city": "Великий Устюг", "18": null, "19": 84.0, "21": null, "27": null, "33": null, "4": null, "6": null }, "geometry": { "type": "Point", "coordinates": [ 46.297849, 60.761156 ] } },
{ "type": "Feature", "properties": { "city": "Великое", "18": null, "19": null, "21": 35.0, "27": null, "33": null, "4": null, "6": null }, "geometry": { "type": "Point", "coordinates": [ 39.773924, 57.349073 ] } },
{ "type": "Feature", "properties": { "city": "Вельск", "18": null, "19": 72.0, "21": 68.0, "27": null, "33": null, "4": null, "6": null }, "geometry": { "type": "Point", "coordinates": [ 42.10331, 61.065915 ] } },
{ "type": "Feature", "properties": { "city": "Верещагино", "18": null, "19": 146.0, "21": null, "27": null, "33": null, "4": null, "6": null }, "geometry": { "type": "Point", "coordinates": [ 54.658092, 58.079766 ] } },
{ "type": "Feature", "properties": { "city": "Верхнеднепровский", "18": 59.0, "19": null, "21": null, "27": null, "33": null, "4": null, "6": null }, "geometry": { "type": "Point", "coordinates": [ 33.344969, 54.981397 ] } },
{ "type": "Feature", "properties": { "city": "Верхнеуральск", "18": null, "19": 154.0, "21": null, "27": null, "33": null, "4": null, "6": null }, "geometry": { "type": "Point", "coordinates": [ 59.206613, 53.872842 ] } },
{ "type": "Feature", "properties": { "city": "Верхнеяркеево", "18": null, "19": 57.0, "21": null, "27": null, "33": null, "4": null, "6": null }, "geometry": { "type": "Point", "coordinates": [ 54.306914, 55.451624 ] } },
{ "type": "Feature", "properties": { "city": "Верхняя Пышма", "18": 97.0, "19": 137.0, "21": 896.0, "27": null, "33": null, "4": null, "6": null }, "geometry": { "type": "Point", "coordinates": [ 60.573462, 56.970236 ] } },
{ "type": "Feature", "properties": { "city": "Верхняя Синячиха", "18": null, "19": 58.0, "21": null, "27": null, "33": null, "4": null, "6": null }, "geometry": { "type": "Point", "coordinates": [ 61.662355, 57.98102 ] } },
{ "type": "Feature", "properties": { "city": "Вилючинск", "18": null, "19": 39.0, "21": null, "27": null, "33": null, "4": null, "6": null }, "geometry": { "type": "Point", "coordinates": [ 158.405063, 52.93179 ] } },
{ "type": "Feature", "properties": { "city": "Вичуга", "18": null, "19": 67.0, "21": null, "27": null, "33": null, "4": null, "6": null }, "geometry": { "type": "Point", "coordinates": [ 41.918158, 57.217138 ] } },
{ "type": "Feature", "properties": { "city": "Владивосток", "18": 1458.0, "19": 4662.0, "21": 7830.0, "27": 2324.0, "33": 2520.0, "4": 1813.0, "6": 2247.0 }, "geometry": { "type": "Point", "coordinates": [ 131.885494, 43.115542 ] } },
{ "type": "Feature", "properties": { "city": "Владикавказ", "18": null, "19": 4100.0, "21": 6285.0, "27": 546.0, "33": 3298.0, "4": 705.0, "6": 819.0 }, "geometry": { "type": "Point", "coordinates": [ 44.681771, 43.024616 ] } },
{ "type": "Feature", "properties": { "city": "Владикавказ", "18": null, "19": 4100.0, "21": 6285.0, "27": 546.0, "33": 3298.0, "4": 705.0, "6": 819.0 }, "geometry": { "type": "Point", "coordinates": [ 44.681771, 43.024616 ] } },
{ "type": "Feature", "properties": { "city": "Владимир", "18": 802.0, "19": 556.0, "21": 307.0, "27": 2129.0, "33": 540.0, "4": 786.0, "6": 1713.0 }, "geometry": { "type": "Point", "coordinates": [ 40.406635, 56.129057 ] } },
{ "type": "Feature", "properties": { "city": "Вознесенская", "18": null, "19": 128.0, "21": null, "27": null, "33": null, "4": null, "6": null }, "geometry": { "type": "Point", "coordinates": [ 41.029275, 44.548519 ] } },
{ "type": "Feature", "properties": { "city": "Волгоград", "18": 8051.0, "19": 6223.0, "21": 3230.0, "27": 3159.0, "33": 5062.0, "4": null, "6": 3520.0 }, "geometry": { "type": "Point", "coordinates": [ 44.516975, 48.707067 ] } },
{ "type": "Feature", "properties": { "city": "Волгодонск", "18": null, "19": null, "21": null, "27": 474.0, "33": 293.0, "4": null, "6": null }, "geometry": { "type": "Point", "coordinates": [ 42.206329, 47.519624 ] } },
{ "type": "Feature", "properties": { "city": "Волжск", "18": 34.0, "19": 80.0, "21": null, "27": null, "33": null, "4": null, "6": null }, "geometry": { "type": "Point", "coordinates": [ 48.378168, 55.860428 ] } },
{ "type": "Feature", "properties": { "city": "Волжский", "18": 2013.0, "19": 383.0, "21": null, "27": 695.0, "33": 936.0, "4": null, "6": null }, "geometry": { "type": "Point", "coordinates": [ 44.751229, 48.786127 ] } },
{ "type": "Feature", "properties": { "city": "Волжский", "18": 2013.0, "19": 383.0, "21": null, "27": 695.0, "33": 936.0, "4": null, "6": null }, "geometry": { "type": "Point", "coordinates": [ 44.571503, 56.046519 ] } },
{ "type": "Feature", "properties": { "city": "Вологда", "18": null, "19": 213.0, "21": 1384.0, "27": 455.0, "33": 166.0, "4": 594.0, "6": 470.0 }, "geometry": { "type": "Point", "coordinates": [ 39.891523, 59.220501 ] } },
{ "type": "Feature", "properties": { "city": "Волоколамск", "18": null, "19": 465.0, "21": 74.0, "27": null, "33": null, "4": null, "6": null }, "geometry": { "type": "Point", "coordinates": [ 35.955222, 56.035869 ] } },
{ "type": "Feature", "properties": { "city": "Волхов", "18": 267.0, "19": null, "21": 203.0, "27": null, "33": null, "4": null, "6": null }, "geometry": { "type": "Point", "coordinates": [ 32.352681, 59.900543 ] } },
{ "type": "Feature", "properties": { "city": "Вольск", "18": 89.0, "19": null, "21": 48.0, "27": null, "33": 233.0, "4": null, "6": null }, "geometry": { "type": "Point", "coordinates": [ 47.387299, 52.045978 ] } },
{ "type": "Feature", "properties": { "city": "Воркута", "18": null, "19": 77.0, "21": 1267.0, "27": null, "33": null, "4": null, "6": null }, "geometry": { "type": "Point", "coordinates": [ 64.050113, 67.493504 ] } },
{ "type": "Feature", "properties": { "city": "Воронеж", "18": 4610.0, "19": 3384.0, "21": 10942.0, "27": 6742.0, "33": 9805.0, "4": 6235.0, "6": 5641.0 }, "geometry": { "type": "Point", "coordinates": [ 39.200296, 51.660781 ] } },
{ "type": "Feature", "properties": { "city": "Воскресенск", "18": 139.0, "19": null, "21": 145.0, "27": 100.0, "33": null, "4": null, "6": null }, "geometry": { "type": "Point", "coordinates": [ 38.673362, 55.322978 ] } },
{ "type": "Feature", "properties": { "city": "Воткинск", "18": null, "19": 115.0, "21": 769.0, "27": null, "33": null, "4": null, "6": null }, "geometry": { "type": "Point", "coordinates": [ 53.985236, 57.05232 ] } },
{ "type": "Feature", "properties": { "city": "Всеволожск", "18": null, "19": null, "21": 139.0, "27": null, "33": null, "4": null, "6": null }, "geometry": { "type": "Point", "coordinates": [ 30.645873, 60.024626 ] } },
{ "type": "Feature", "properties": { "city": "Вурнары", "18": null, "19": 156.0, "21": null, "27": null, "33": null, "4": null, "6": null }, "geometry": { "type": "Point", "coordinates": [ 46.953431, 55.490871 ] } },
{ "type": "Feature", "properties": { "city": "Выборг", "18": 113.0, "19": 101.0, "21": null, "27": null, "33": null, "4": null, "6": null }, "geometry": { "type": "Point", "coordinates": [ 28.749781, 60.710496 ] } },
{ "type": "Feature", "properties": { "city": "Выкса", "18": null, "19": 195.0, "21": 193.0, "27": 519.0, "33": null, "4": null, "6": null }, "geometry": { "type": "Point", "coordinates": [ 42.16797, 55.320688 ] } },
{ "type": "Feature", "properties": { "city": "Выльгорт", "18": null, "19": null, "21": 63.0, "27": null, "33": null, "4": null, "6": null }, "geometry": { "type": "Point", "coordinates": [ 50.768369, 61.626965 ] } },
{ "type": "Feature", "properties": { "city": "Вязьма", "18": null, "19": 1014.0, "21": 16.0, "27": 15.0, "33": 290.0, "4": null, "6": null }, "geometry": { "type": "Point", "coordinates": [ 34.298037, 55.205944 ] } },
{ "type": "Feature", "properties": { "city": "Вятские Поляны", "18": null, "19": 113.0, "21": null, "27": null, "33": null, "4": null, "6": null }, "geometry": { "type": "Point", "coordinates": [ 51.074919, 56.222896 ] } },
{ "type": "Feature", "properties": { "city": "Гаврилов-Ям", "18": null, "19": 44.0, "21": null, "27": null, "33": null, "4": null, "6": null }, "geometry": { "type": "Point", "coordinates": [ 39.853847, 57.303956 ] } },
{ "type": "Feature", "properties": { "city": "Гатчина", "18": null, "19": 231.0, "21": 195.0, "27": null, "33": null, "4": null, "6": null }, "geometry": { "type": "Point", "coordinates": [ 30.122892, 59.56841 ] } },
{ "type": "Feature", "properties": { "city": "Геленджик", "18": null, "19": 40.0, "21": 75.0, "27": 24.0, "33": 57.0, "4": null, "6": null }, "geometry": { "type": "Point", "coordinates": [ 38.077115, 44.561012 ] } },
{ "type": "Feature", "properties": { "city": "Георгиевск", "18": null, "19": 557.0, "21": 140.0, "27": null, "33": null, "4": null, "6": null }, "geometry": { "type": "Point", "coordinates": [ 43.474274, 44.147959 ] } },
{ "type": "Feature", "properties": { "city": "Глазов", "18": 99.0, "19": 168.0, "21": null, "27": null, "33": null, "4": null, "6": null }, "geometry": { "type": "Point", "coordinates": [ 52.674253, 58.140801 ] } },
{ "type": "Feature", "properties": { "city": "Голынщина", "18": null, "19": 47.0, "21": null, "27": null, "33": null, "4": null, "6": null }, "geometry": { "type": "Point", "coordinates": [ 42.713401, 52.671489 ] } },
{ "type": "Feature", "properties": { "city": "Голышманово", "18": null, "19": 78.0, "21": null, "27": null, "33": null, "4": null, "6": null }, "geometry": { "type": "Point", "coordinates": [ 68.375385, 56.396005 ] } },
{ "type": "Feature", "properties": { "city": "Горно-Алтайск", "18": null, "19": null, "21": 449.0, "27": null, "33": 328.0, "4": 969.0, "6": 1490.0 }, "geometry": { "type": "Point", "coordinates": [ 85.960634, 51.957804 ] } },
{ "type": "Feature", "properties": { "city": "Горнозаводск", "18": null, "19": 48.0, "21": 47.0, "27": null, "33": null, "4": null, "6": null }, "geometry": { "type": "Point", "coordinates": [ 58.330917, 58.374682 ] } },
{ "type": "Feature", "properties": { "city": "Горнозаводск", "18": null, "19": 48.0, "21": 47.0, "27": null, "33": null, "4": null, "6": null }, "geometry": { "type": "Point", "coordinates": [ 141.846759, 46.560619 ] } },
{ "type": "Feature", "properties": { "city": "Городец", "18": null, "19": 117.0, "21": null, "27": null, "33": null, "4": null, "6": null }, "geometry": { "type": "Point", "coordinates": [ 43.47236, 56.644822 ] } },
{ "type": "Feature", "properties": { "city": "Городовиковск", "18": null, "19": 59.0, "21": null, "27": null, "33": null, "4": null, "6": null }, "geometry": { "type": "Point", "coordinates": [ 41.936052, 46.083105 ] } },
{ "type": "Feature", "properties": { "city": "Горячий Ключ", "18": null, "19": null, "21": 89.0, "27": null, "33": null, "4": null, "6": null }, "geometry": { "type": "Point", "coordinates": [ 39.136426, 44.634246 ] } },
{ "type": "Feature", "properties": { "city": "Грозный", "18": 1565.0, "19": 1085.0, "21": 5844.0, "27": 997.0, "33": 3689.0, "4": 1656.0, "6": 3413.0 }, "geometry": { "type": "Point", "coordinates": [ 45.692421, 43.318366 ] } },
{ "type": "Feature", "properties": { "city": "Губаха", "18": 163.0, "19": 172.0, "21": null, "27": null, "33": null, "4": null, "6": null }, "geometry": { "type": "Point", "coordinates": [ 57.554584, 58.837022 ] } },
{ "type": "Feature", "properties": { "city": "Губкин", "18": null, "19": 106.0, "21": 4893.0, "27": null, "33": null, "4": null, "6": null }, "geometry": { "type": "Point", "coordinates": [ 37.534757, 51.283644 ] } },
{ "type": "Feature", "properties": { "city": "Губкинский", "18": null, "19": null, "21": 99.0, "27": null, "33": null, "4": null, "6": null }, "geometry": { "type": "Point", "coordinates": [ 76.500503, 64.432625 ] } },
{ "type": "Feature", "properties": { "city": "Гуково", "18": null, "19": null, "21": 74.0, "27": null, "33": null, "4": null, "6": null }, "geometry": { "type": "Point", "coordinates": [ 39.934929, 48.061025 ] } },
{ "type": "Feature", "properties": { "city": "Гулькевичи", "18": null, "19": 166.0, "21": null, "27": null, "33": null, "4": null, "6": null }, "geometry": { "type": "Point", "coordinates": [ 40.695236, 45.360342 ] } },
{ "type": "Feature", "properties": { "city": "Гусев", "18": null, "19": 105.0, "21": 143.0, "27": null, "33": 135.0, "4": null, "6": null }, "geometry": { "type": "Point", "coordinates": [ 22.201117, 54.591841 ] } },
{ "type": "Feature", "properties": { "city": "Гусь-Хрустальный", "18": 165.0, "19": null, "21": null, "27": null, "33": null, "4": null, "6": null }, "geometry": { "type": "Point", "coordinates": [ 40.671045, 55.614556 ] } },
{ "type": "Feature", "properties": { "city": "Дальнегорск", "18": null, "19": 73.0, "21": 101.0, "27": null, "33": null, "4": null, "6": null }, "geometry": { "type": "Point", "coordinates": [ 135.576366, 44.558764 ] } },
{ "type": "Feature", "properties": { "city": "Дальнереченск", "18": null, "19": 69.0, "21": null, "27": null, "33": null, "4": null, "6": null }, "geometry": { "type": "Point", "coordinates": [ 133.726941, 45.931182 ] } },
{ "type": "Feature", "properties": { "city": "Двинской", "18": null, "19": 4.0, "21": null, "27": null, "33": null, "4": null, "6": null }, "geometry": { "type": "Point", "coordinates": [ 45.117804, 62.154774 ] } },
{ "type": "Feature", "properties": { "city": "Дзержинск", "18": 1826.0, "19": 287.0, "21": 107.0, "27": null, "33": null, "4": null, "6": null }, "geometry": { "type": "Point", "coordinates": [ 43.461634, 56.238382 ] } },
{ "type": "Feature", "properties": { "city": "Димитровград", "18": 761.0, "19": 225.0, "21": 123.0, "27": null, "33": null, "4": null, "6": null }, "geometry": { "type": "Point", "coordinates": [ 49.623924, 54.217515 ] } },
{ "type": "Feature", "properties": { "city": "Динская", "18": null, "19": 277.0, "21": null, "27": null, "33": null, "4": null, "6": null }, "geometry": { "type": "Point", "coordinates": [ 39.223068, 45.218577 ] } },
{ "type": "Feature", "properties": { "city": "Дмитриев", "18": null, "19": 48.0, "21": 57.0, "27": null, "33": null, "4": null, "6": null }, "geometry": { "type": "Point", "coordinates": [ 35.080353, 52.12778 ] } },
{ "type": "Feature", "properties": { "city": "Дмитров", "18": null, "19": 179.0, "21": 395.0, "27": null, "33": null, "4": null, "6": null }, "geometry": { "type": "Point", "coordinates": [ 37.517608, 56.342905 ] } },
{ "type": "Feature", "properties": { "city": "Добрянка", "18": null, "19": 69.0, "21": null, "27": null, "33": null, "4": null, "6": null }, "geometry": { "type": "Point", "coordinates": [ 56.403986, 58.468068 ] } },
{ "type": "Feature", "properties": { "city": "Долгое Ледово", "18": 275.0, "19": 282.0, "21": 287.0, "27": null, "33": null, "4": null, "6": null }, "geometry": { "type": "Point", "coordinates": [ 37.975596, 55.854966 ] } },
{ "type": "Feature", "properties": { "city": "Долгопрудный", "18": null, "19": 3504.0, "21": null, "27": 2572.0, "33": null, "4": null, "6": null }, "geometry": { "type": "Point", "coordinates": [ 37.51423, 55.933302 ] } },
{ "type": "Feature", "properties": { "city": "Донской", "18": null, "19": 124.0, "21": null, "27": null, "33": null, "4": null, "6": null }, "geometry": { "type": "Point", "coordinates": [ 38.33741, 53.968352 ] } },
{ "type": "Feature", "properties": { "city": "Дубна", "18": null, "19": null, "21": 901.0, "27": 2102.0, "33": null, "4": 1368.0, "6": null }, "geometry": { "type": "Point", "coordinates": [ 37.162189, 56.736345 ] } },
{ "type": "Feature", "properties": { "city": "Дубовка", "18": null, "19": null, "21": null, "27": null, "33": 321.0, "4": null, "6": null }, "geometry": { "type": "Point", "coordinates": [ 44.826957, 49.055375 ] } },
{ "type": "Feature", "properties": { "city": "Дудинка", "18": 39.0, "19": null, "21": 41.0, "27": null, "33": null, "4": null, "6": null }, "geometry": { "type": "Point", "coordinates": [ 86.164992, 69.405769 ] } },
{ "type": "Feature", "properties": { "city": "Дюртюли", "18": null, "19": null, "21": 159.0, "27": null, "33": null, "4": null, "6": null }, "geometry": { "type": "Point", "coordinates": [ 54.873472, 55.48529 ] } },
{ "type": "Feature", "properties": { "city": "Дятьково", "18": null, "19": null, "21": null, "27": 85.0, "33": null, "4": null, "6": null }, "geometry": { "type": "Point", "coordinates": [ 34.339656, 53.597311 ] } },
{ "type": "Feature", "properties": { "city": "Евпатория", "18": null, "19": 159.0, "21": null, "27": null, "33": 131.0, "4": null, "6": null }, "geometry": { "type": "Point", "coordinates": [ 33.367643, 45.190635 ] } },
{ "type": "Feature", "properties": { "city": "Егорьевск", "18": null, "19": 120.0, "21": null, "27": null, "33": null, "4": null, "6": null }, "geometry": { "type": "Point", "coordinates": [ 39.035842, 55.383055 ] } },
{ "type": "Feature", "properties": { "city": "Ежово", "18": null, "19": 59.0, "21": null, "27": null, "33": null, "4": null, "6": null }, "geometry": { "type": "Point", "coordinates": [ 48.120531, 56.71296 ] } },
{ "type": "Feature", "properties": { "city": "Ейск", "18": null, "19": 258.0, "21": 134.0, "27": null, "33": null, "4": null, "6": null }, "geometry": { "type": "Point", "coordinates": [ 38.27266, 46.711944 ] } },
{ "type": "Feature", "properties": { "city": "Екатеринбург", "18": 2916.0, "19": 7253.0, "21": 8249.0, "27": 13211.0, "33": 3648.0, "4": 4711.0, "6": 2951.0 }, "geometry": { "type": "Point", "coordinates": [ 60.597474, 56.838011 ] } },
{ "type": "Feature", "properties": { "city": "Елабуга", "18": null, "19": null, "21": null, "27": null, "33": null, "4": null, "6": 74.0 }, "geometry": { "type": "Point", "coordinates": [ 52.053939, 55.757496 ] } },
{ "type": "Feature", "properties": { "city": "Елань", "18": null, "19": 79.0, "21": null, "27": null, "33": null, "4": null, "6": null }, "geometry": { "type": "Point", "coordinates": [ 43.734686, 50.950094 ] } },
{ "type": "Feature", "properties": { "city": "Елец", "18": 75.0, "19": null, "21": 36.0, "27": null, "33": 224.0, "4": 2.0, "6": null }, "geometry": { "type": "Point", "coordinates": [ 38.500446, 52.621938 ] } },
{ "type": "Feature", "properties": { "city": "Елизово", "18": null, "19": null, "21": 165.0, "27": null, "33": null, "4": null, "6": null }, "geometry": { "type": "Point", "coordinates": [ 158.382659, 53.189231 ] } },
{ "type": "Feature", "properties": { "city": "Ефремов", "18": 83.0, "19": 90.0, "21": null, "27": null, "33": null, "4": null, "6": null }, "geometry": { "type": "Point", "coordinates": [ 38.117673, 53.137603 ] } },
{ "type": "Feature", "properties": { "city": "Железногорск", "18": null, "19": 158.0, "21": 244.0, "27": null, "33": null, "4": null, "6": null }, "geometry": { "type": "Point", "coordinates": [ 93.532264, 56.252922 ] } },
{ "type": "Feature", "properties": { "city": "Железногорск", "18": null, "19": 158.0, "21": 244.0, "27": null, "33": null, "4": null, "6": null }, "geometry": { "type": "Point", "coordinates": [ 35.350871, 52.339203 ] } },
{ "type": "Feature", "properties": { "city": "Железногорск-Илимский", "18": null, "19": null, "21": 62.0, "27": null, "33": null, "4": null, "6": null }, "geometry": { "type": "Point", "coordinates": [ 104.114292, 56.584848 ] } },
{ "type": "Feature", "properties": { "city": "Жердевка", "18": null, "19": 104.0, "21": null, "27": null, "33": null, "4": null, "6": null }, "geometry": { "type": "Point", "coordinates": [ 41.469638, 51.844163 ] } },
{ "type": "Feature", "properties": { "city": "Жигулевск", "18": 54.0, "19": null, "21": null, "27": null, "33": null, "4": null, "6": null }, "geometry": { "type": "Point", "coordinates": [ 49.494657, 53.40172 ] } },
{ "type": "Feature", "properties": { "city": "Жирновск", "18": null, "19": null, "21": 310.0, "27": null, "33": null, "4": null, "6": null }, "geometry": { "type": "Point", "coordinates": [ 44.778843, 50.978718 ] } },
{ "type": "Feature", "properties": { "city": "Задонск", "18": null, "19": 134.0, "21": null, "27": null, "33": null, "4": null, "6": null }, "geometry": { "type": "Point", "coordinates": [ 38.919456, 52.391972 ] } },
{ "type": "Feature", "properties": { "city": "Заинск", "18": null, "19": 97.0, "21": null, "27": null, "33": null, "4": null, "6": null }, "geometry": { "type": "Point", "coordinates": [ 52.000427, 55.283928 ] } },
{ "type": "Feature", "properties": { "city": "Закаменск", "18": null, "19": null, "21": 48.0, "27": null, "33": null, "4": null, "6": null }, "geometry": { "type": "Point", "coordinates": [ 103.286764, 50.372602 ] } },
{ "type": "Feature", "properties": { "city": "Заринск", "18": 74.0, "19": 97.0, "21": null, "27": null, "33": null, "4": null, "6": null }, "geometry": { "type": "Point", "coordinates": [ 84.931488, 53.706337 ] } },
{ "type": "Feature", "properties": { "city": "Зеленогорск", "18": null, "19": 72.0, "21": null, "27": null, "33": null, "4": null, "6": null }, "geometry": { "type": "Point", "coordinates": [ 94.588844, 56.113291 ] } },
{ "type": "Feature", "properties": { "city": "Зерноград", "18": null, "19": 856.0, "21": 396.0, "27": null, "33": null, "4": null, "6": null }, "geometry": { "type": "Point", "coordinates": [ 40.312824, 46.849564 ] } },
{ "type": "Feature", "properties": { "city": "Зея", "18": 42.0, "19": null, "21": 48.0, "27": null, "33": null, "4": null, "6": null }, "geometry": { "type": "Point", "coordinates": [ 127.265889, 53.734038 ] } },
{ "type": "Feature", "properties": { "city": "Зимовники", "18": null, "19": 65.0, "21": null, "27": null, "33": null, "4": null, "6": null }, "geometry": { "type": "Point", "coordinates": [ 42.46772, 47.145376 ] } },
{ "type": "Feature", "properties": { "city": "Златоуст", "18": null, "19": 116.0, "21": null, "27": null, "33": 300.0, "4": null, "6": null }, "geometry": { "type": "Point", "coordinates": [ 59.672425, 55.173113 ] } },
{ "type": "Feature", "properties": { "city": "Зуевка", "18": null, "19": 74.0, "21": null, "27": null, "33": null, "4": null, "6": null }, "geometry": { "type": "Point", "coordinates": [ 51.133435, 58.403217 ] } },
{ "type": "Feature", "properties": { "city": "Зюкайка", "18": null, "19": 13.0, "21": 16.0, "27": null, "33": null, "4": null, "6": null }, "geometry": { "type": "Point", "coordinates": [ 54.711722, 58.204913 ] } },
{ "type": "Feature", "properties": { "city": "Иваново", "18": 9542.0, "19": 3280.0, "21": 184.0, "27": 4193.0, "33": 787.0, "4": 2861.0, "6": 1791.0 }, "geometry": { "type": "Point", "coordinates": [ 40.97393, 57.000353 ] } },
{ "type": "Feature", "properties": { "city": "Ивановское", "18": null, "19": 73.0, "21": null, "27": null, "33": null, "4": null, "6": null }, "geometry": { "type": "Point", "coordinates": [ 37.840112, 55.076278 ] } },
{ "type": "Feature", "properties": { "city": "Игарка", "18": 24.0, "19": null, "21": 25.0, "27": null, "33": null, "4": null, "6": null }, "geometry": { "type": "Point", "coordinates": [ 86.567662, 67.46694 ] } },
{ "type": "Feature", "properties": { "city": "Игрим", "18": 61.0, "19": null, "21": 74.0, "27": null, "33": null, "4": null, "6": null }, "geometry": { "type": "Point", "coordinates": [ 64.421944, 63.196228 ] } },
{ "type": "Feature", "properties": { "city": "Ижевск", "18": 3.0, "19": 2027.0, "21": 7101.0, "27": 2088.0, "33": 385.0, "4": 1744.0, "6": 2930.0 }, "geometry": { "type": "Point", "coordinates": [ 53.2069, 56.852676 ] } },
{ "type": "Feature", "properties": { "city": "Избербаш", "18": null, "19": null, "21": 164.0, "27": null, "33": null, "4": null, "6": null }, "geometry": { "type": "Point", "coordinates": [ 47.871087, 42.565148 ] } },
{ "type": "Feature", "properties": { "city": "Ильский", "18": null, "19": 128.0, "21": null, "27": null, "33": null, "4": null, "6": null }, "geometry": { "type": "Point", "coordinates": [ 38.561998, 44.835941 ] } },
{ "type": "Feature", "properties": { "city": "Инза", "18": null, "19": null, "21": 51.0, "27": null, "33": null, "4": null, "6": null }, "geometry": { "type": "Point", "coordinates": [ 46.351649, 53.85704 ] } },
{ "type": "Feature", "properties": { "city": "Инской", "18": null, "19": 150.0, "21": 167.0, "27": null, "33": null, "4": null, "6": null }, "geometry": { "type": "Point", "coordinates": [ 86.42845, 54.433213 ] } },
{ "type": "Feature", "properties": { "city": "Инта", "18": null, "19": 25.0, "21": null, "27": null, "33": null, "4": null, "6": null }, "geometry": { "type": "Point", "coordinates": [ 60.115367, 66.036823 ] } },
{ "type": "Feature", "properties": { "city": "Инякино", "18": null, "19": 81.0, "21": null, "27": null, "33": null, "4": null, "6": null }, "geometry": { "type": "Point", "coordinates": [ 41.113052, 54.434239 ] } },
{ "type": "Feature", "properties": { "city": "Ипатово", "18": null, "19": 80.0, "21": null, "27": null, "33": null, "4": null, "6": null }, "geometry": { "type": "Point", "coordinates": [ 42.911156, 45.717425 ] } },
{ "type": "Feature", "properties": { "city": "Ирбит", "18": 41.0, "19": 58.0, "21": null, "27": null, "33": null, "4": null, "6": null }, "geometry": { "type": "Point", "coordinates": [ 63.054079, 57.68507 ] } },
{ "type": "Feature", "properties": { "city": "Иркутск", "18": 2073.0, "19": 1548.0, "21": 4362.0, "27": 2841.0, "33": 2085.0, "4": 2690.0, "6": 3901.0 }, "geometry": { "type": "Point", "coordinates": [ 104.280606, 52.289588 ] } },
{ "type": "Feature", "properties": { "city": "Ирша", "18": null, "19": null, "21": 140.0, "27": null, "33": null, "4": null, "6": null }, "geometry": { "type": "Point", "coordinates": [ 94.799841, 55.927644 ] } },
{ "type": "Feature", "properties": { "city": "Искитим", "18": 156.0, "19": null, "21": null, "27": null, "33": null, "4": null, "6": null }, "geometry": { "type": "Point", "coordinates": [ 83.306391, 54.642587 ] } },
{ "type": "Feature", "properties": { "city": "Ишим", "18": null, "19": 167.0, "21": null, "27": null, "33": 229.0, "4": null, "6": null }, "geometry": { "type": "Point", "coordinates": [ 69.457073, 56.109175 ] } },
{ "type": "Feature", "properties": { "city": "Ишимбай", "18": null, "19": null, "21": 653.0, "27": null, "33": null, "4": null, "6": null }, "geometry": { "type": "Point", "coordinates": [ 56.04395, 53.454626 ] } },
{ "type": "Feature", "properties": { "city": "Йошкар-Ола", "18": 178.0, "19": 1835.0, "21": 2026.0, "27": 2727.0, "33": 1442.0, "4": 1458.0, "6": 1896.0 }, "geometry": { "type": "Point", "coordinates": [ 47.886178, 56.6316 ] } },
{ "type": "Feature", "properties": { "city": "Кавалерово", "18": null, "19": null, "21": 103.0, "27": null, "33": null, "4": null, "6": null }, "geometry": { "type": "Point", "coordinates": [ 135.057292, 44.267653 ] } },
{ "type": "Feature", "properties": { "city": "Кадом", "18": null, "19": 59.0, "21": null, "27": null, "33": null, "4": null, "6": null }, "geometry": { "type": "Point", "coordinates": [ 42.467244, 54.559078 ] } },
{ "type": "Feature", "properties": { "city": "Казань", "18": 4231.0, "19": 3455.0, "21": 14901.0, "27": 16691.0, "33": 8016.0, "4": 5923.0, "6": 932.0 }, "geometry": { "type": "Point", "coordinates": [ 49.106414, 55.796127 ] } },
{ "type": "Feature", "properties": { "city": "Калачинск", "18": null, "19": 47.0, "21": null, "27": null, "33": null, "4": null, "6": null }, "geometry": { "type": "Point", "coordinates": [ 74.581782, 55.052613 ] } },
{ "type": "Feature", "properties": { "city": "Калашниково", "18": null, "19": null, "21": 82.0, "27": null, "33": null, "4": null, "6": null }, "geometry": { "type": "Point", "coordinates": [ 35.224541, 57.279735 ] } },
{ "type": "Feature", "properties": { "city": "Калининград", "18": 136.0, "19": 3210.0, "21": 1116.0, "27": null, "33": 349.0, "4": 1045.0, "6": 2193.0 }, "geometry": { "type": "Point", "coordinates": [ 20.510137, 54.710162 ] } },
{ "type": "Feature", "properties": { "city": "Калуга", "18": null, "19": 366.0, "21": 988.0, "27": 3663.0, "33": 635.0, "4": 1195.0, "6": 1023.0 }, "geometry": { "type": "Point", "coordinates": [ 36.261224, 54.513845 ] } },
{ "type": "Feature", "properties": { "city": "Каменка", "18": null, "19": 117.0, "21": null, "27": 92.0, "33": null, "4": null, "6": null }, "geometry": { "type": "Point", "coordinates": [ 44.046878, 53.185557 ] } },
{ "type": "Feature", "properties": { "city": "Каменск-Уральский", "18": null, "19": 87.0, "21": null, "27": 127.0, "33": null, "4": null, "6": null }, "geometry": { "type": "Point", "coordinates": [ 61.917764, 56.41524 ] } },
{ "type": "Feature", "properties": { "city": "Каменск-Шахтинский", "18": 153.0, "19": 144.0, "21": null, "27": 343.0, "33": null, "4": null, "6": null }, "geometry": { "type": "Point", "coordinates": [ 40.269534, 48.323133 ] } },
{ "type": "Feature", "properties": { "city": "Камень-на-Оби", "18": null, "19": 96.0, "21": null, "27": null, "33": null, "4": null, "6": null }, "geometry": { "type": "Point", "coordinates": [ 81.354558, 53.791492 ] } },
{ "type": "Feature", "properties": { "city": "Камышин", "18": null, "19": 93.0, "21": null, "27": null, "33": null, "4": null, "6": null }, "geometry": { "type": "Point", "coordinates": [ 45.402166, 50.085287 ] } },
{ "type": "Feature", "properties": { "city": "Канаш", "18": 218.0, "19": null, "21": 216.0, "27": null, "33": null, "4": null, "6": null }, "geometry": { "type": "Point", "coordinates": [ 47.491764, 55.506943 ] } },
{ "type": "Feature", "properties": { "city": "Каневская", "18": null, "19": null, "21": 50.0, "27": null, "33": null, "4": null, "6": null }, "geometry": { "type": "Point", "coordinates": [ 38.971953, 46.084805 ] } },
{ "type": "Feature", "properties": { "city": "Канск", "18": 170.0, "19": 64.0, "21": 178.0, "27": null, "33": null, "4": null, "6": null }, "geometry": { "type": "Point", "coordinates": [ 95.705064, 56.20505 ] } },
{ "type": "Feature", "properties": { "city": "Карабаш", "18": 33.0, "19": null, "21": null, "27": null, "33": null, "4": null, "6": null }, "geometry": { "type": "Point", "coordinates": [ 60.203087, 55.488371 ] } },
{ "type": "Feature", "properties": { "city": "Карагай", "18": null, "19": 13.0, "21": null, "27": null, "33": null, "4": null, "6": null }, "geometry": { "type": "Point", "coordinates": [ 54.928422, 58.266211 ] } },
{ "type": "Feature", "properties": { "city": "Карачаевск", "18": null, "19": null, "21": null, "27": null, "33": null, "4": null, "6": 757.0 }, "geometry": { "type": "Point", "coordinates": [ 41.911475, 43.769958 ] } },
{ "type": "Feature", "properties": { "city": "Карачев", "18": 87.0, "19": null, "21": null, "27": null, "33": null, "4": null, "6": null }, "geometry": { "type": "Point", "coordinates": [ 34.982805, 53.121594 ] } },
{ "type": "Feature", "properties": { "city": "Карпинск", "18": null, "19": 107.0, "21": null, "27": null, "33": null, "4": null, "6": null }, "geometry": { "type": "Point", "coordinates": [ 60.001074, 59.766633 ] } },
{ "type": "Feature", "properties": { "city": "Касимов", "18": 100.0, "19": 61.0, "21": 81.0, "27": null, "33": 161.0, "4": null, "6": null }, "geometry": { "type": "Point", "coordinates": [ 41.391368, 54.937288 ] } },
{ "type": "Feature", "properties": { "city": "Качканар", "18": null, "19": 70.0, "21": 67.0, "27": null, "33": null, "4": null, "6": null }, "geometry": { "type": "Point", "coordinates": [ 59.485037, 58.70526 ] } },
{ "type": "Feature", "properties": { "city": "Кашира", "18": null, "19": null, "21": null, "27": 110.0, "33": null, "4": null, "6": null }, "geometry": { "type": "Point", "coordinates": [ 38.15154, 54.834589 ] } },
{ "type": "Feature", "properties": { "city": "Кемерово", "18": 3232.0, "19": 1695.0, "21": 2275.0, "27": 2149.0, "33": 2009.0, "4": 2651.0, "6": 3376.0 }, "geometry": { "type": "Point", "coordinates": [ 86.086847, 55.355198 ] } },
{ "type": "Feature", "properties": { "city": "Керчь", "18": 115.0, "19": 200.0, "21": 142.0, "27": null, "33": null, "4": null, "6": null }, "geometry": { "type": "Point", "coordinates": [ 36.467378, 45.356219 ] } },
{ "type": "Feature", "properties": { "city": "Кизел", "18": null, "19": 42.0, "21": null, "27": null, "33": null, "4": null, "6": null }, "geometry": { "type": "Point", "coordinates": [ 57.653875, 59.04943 ] } },
{ "type": "Feature", "properties": { "city": "Кизляр", "18": null, "19": null, "21": 144.0, "27": null, "33": null, "4": null, "6": 54.0 }, "geometry": { "type": "Point", "coordinates": [ 46.710338, 43.850312 ] } },
{ "type": "Feature", "properties": { "city": "Ким", "18": null, "19": null, "21": 82.0, "27": null, "33": null, "4": null, "6": null }, "geometry": { "type": "Point", "coordinates": [ 54.612188, 53.897122 ] } },
{ "type": "Feature", "properties": { "city": "Кимры", "18": null, "19": null, "21": null, "27": 61.0, "33": null, "4": null, "6": null }, "geometry": { "type": "Point", "coordinates": [ 37.358274, 56.872659 ] } },
{ "type": "Feature", "properties": { "city": "Кингисепп", "18": 146.0, "19": 131.0, "21": null, "27": null, "33": null, "4": null, "6": null }, "geometry": { "type": "Point", "coordinates": [ 28.601209, 59.378053 ] } },
{ "type": "Feature", "properties": { "city": "Кинель", "18": null, "19": 81.0, "21": null, "27": null, "33": null, "4": null, "6": null }, "geometry": { "type": "Point", "coordinates": [ 50.634394, 53.22101 ] } },
{ "type": "Feature", "properties": { "city": "Кинешма", "18": 68.0, "19": 43.0, "21": null, "27": null, "33": null, "4": null, "6": null }, "geometry": { "type": "Point", "coordinates": [ 42.169525, 57.443126 ] } },
{ "type": "Feature", "properties": { "city": "Кириши", "18": 128.0, "19": 115.0, "21": null, "27": null, "33": null, "4": null, "6": null }, "geometry": { "type": "Point", "coordinates": [ 32.008716, 59.449695 ] } },
{ "type": "Feature", "properties": { "city": "Киров", "18": 5369.0, "19": 4677.0, "21": 1477.0, "27": 4079.0, "33": 546.0, "4": 2607.0, "6": 8685.0 }, "geometry": { "type": "Point", "coordinates": [ 34.307999, 54.079614 ] } },
{ "type": "Feature", "properties": { "city": "Киров", "18": 5369.0, "19": 4677.0, "21": 1477.0, "27": 4079.0, "33": 546.0, "4": 2607.0, "6": 8685.0 }, "geometry": { "type": "Point", "coordinates": [ 49.668023, 58.603595 ] } },
{ "type": "Feature", "properties": { "city": "Кировград", "18": 26.0, "19": null, "21": 35.0, "27": null, "33": null, "4": null, "6": null }, "geometry": { "type": "Point", "coordinates": [ 60.062321, 57.431916 ] } },
{ "type": "Feature", "properties": { "city": "Кирово-Чепецк", "18": 60.0, "19": 78.0, "21": null, "27": null, "33": null, "4": null, "6": null }, "geometry": { "type": "Point", "coordinates": [ 50.043941, 58.556581 ] } },
{ "type": "Feature", "properties": { "city": "Кировск", "18": null, "19": null, "21": 130.0, "27": null, "33": null, "4": null, "6": null }, "geometry": { "type": "Point", "coordinates": [ 30.981457, 59.87533 ] } },
{ "type": "Feature", "properties": { "city": "Кировск", "18": null, "19": null, "21": 130.0, "27": null, "33": null, "4": null, "6": null }, "geometry": { "type": "Point", "coordinates": [ 33.668237, 67.61206 ] } },
{ "type": "Feature", "properties": { "city": "Кировский", "18": null, "19": 52.0, "21": null, "27": null, "33": null, "4": null, "6": null }, "geometry": { "type": "Point", "coordinates": [ 133.498841, 45.091914 ] } },
{ "type": "Feature", "properties": { "city": "Киселевск", "18": null, "19": null, "21": 206.0, "27": null, "33": null, "4": null, "6": null }, "geometry": { "type": "Point", "coordinates": [ 86.636688, 54.006025 ] } },
{ "type": "Feature", "properties": { "city": "Кисловодск", "18": null, "19": 199.0, "21": null, "27": 34.0, "33": null, "4": null, "6": null }, "geometry": { "type": "Point", "coordinates": [ 42.715718, 43.905518 ] } },
{ "type": "Feature", "properties": { "city": "Ковдор", "18": null, "19": null, "21": 83.0, "27": null, "33": null, "4": null, "6": null }, "geometry": { "type": "Point", "coordinates": [ 30.474034, 67.562917 ] } },
{ "type": "Feature", "properties": { "city": "Ковров", "18": null, "19": 205.0, "21": null, "27": 848.0, "33": 285.0, "4": null, "6": null }, "geometry": { "type": "Point", "coordinates": [ 41.310933, 56.362506 ] } },
{ "type": "Feature", "properties": { "city": "Ковылкино", "18": null, "19": null, "21": 162.0, "27": null, "33": null, "4": null, "6": null }, "geometry": { "type": "Point", "coordinates": [ 43.91505, 54.0379 ] } },
{ "type": "Feature", "properties": { "city": "Когалым", "18": 47.0, "19": null, "21": 57.0, "27": null, "33": null, "4": null, "6": null }, "geometry": { "type": "Point", "coordinates": [ 74.482761, 62.264069 ] } },
{ "type": "Feature", "properties": { "city": "Кожевниково", "18": null, "19": 25.0, "21": null, "27": null, "33": null, "4": null, "6": null }, "geometry": { "type": "Point", "coordinates": [ 83.968862, 56.259493 ] } },
{ "type": "Feature", "properties": { "city": "Козловка", "18": null, "19": 59.0, "21": null, "27": null, "33": null, "4": null, "6": null }, "geometry": { "type": "Point", "coordinates": [ 48.245136, 55.840386 ] } },
{ "type": "Feature", "properties": { "city": "Козловка", "18": null, "19": 59.0, "21": null, "27": null, "33": null, "4": null, "6": null }, "geometry": { "type": "Point", "coordinates": [ 32.404604, 54.169706 ] } },
{ "type": "Feature", "properties": { "city": "Коленово", "18": null, "19": 24.0, "21": null, "27": null, "33": null, "4": null, "6": null }, "geometry": { "type": "Point", "coordinates": [ 45.108156, 57.404768 ] } },
{ "type": "Feature", "properties": { "city": "Коломна", "18": null, "19": 102.0, "21": null, "27": 498.0, "33": 192.0, "4": null, "6": null }, "geometry": { "type": "Point", "coordinates": [ 38.765556, 55.095956 ] } },
{ "type": "Feature", "properties": { "city": "Колпашево", "18": null, "19": null, "21": 69.0, "27": null, "33": null, "4": null, "6": null }, "geometry": { "type": "Point", "coordinates": [ 82.902688, 58.311389 ] } },
{ "type": "Feature", "properties": { "city": "Колывань", "18": null, "19": 52.0, "21": null, "27": null, "33": null, "4": null, "6": null }, "geometry": { "type": "Point", "coordinates": [ 82.738934, 55.30851 ] } },
{ "type": "Feature", "properties": { "city": "Комаричи", "18": null, "19": 33.0, "21": null, "27": null, "33": null, "4": null, "6": null }, "geometry": { "type": "Point", "coordinates": [ 34.784097, 52.419009 ] } },
{ "type": "Feature", "properties": { "city": "Комсомольск-на-Амуре", "18": 1868.0, "19": null, "21": 1019.0, "27": 1435.0, "33": null, "4": null, "6": null }, "geometry": { "type": "Point", "coordinates": [ 137.008685, 50.550055 ] } },
{ "type": "Feature", "properties": { "city": "Комсомольский", "18": 84.0, "19": null, "21": null, "27": null, "33": null, "4": null, "6": null }, "geometry": { "type": "Point", "coordinates": [ 45.827967, 54.440497 ] } },
{ "type": "Feature", "properties": { "city": "Константиновск", "18": null, "19": 101.0, "21": 67.0, "27": null, "33": null, "4": null, "6": null }, "geometry": { "type": "Point", "coordinates": [ 41.096694, 47.577341 ] } },
{ "type": "Feature", "properties": { "city": "Копейск", "18": null, "19": null, "21": 151.0, "27": null, "33": null, "4": null, "6": null }, "geometry": { "type": "Point", "coordinates": [ 61.611574, 55.115697 ] } },
{ "type": "Feature", "properties": { "city": "Кораблино", "18": null, "19": 55.0, "21": null, "27": null, "33": null, "4": null, "6": null }, "geometry": { "type": "Point", "coordinates": [ 40.034463, 53.926817 ] } },
{ "type": "Feature", "properties": { "city": "Коренево", "18": null, "19": 36.0, "21": null, "27": null, "33": null, "4": null, "6": null }, "geometry": { "type": "Point", "coordinates": [ 34.893305, 51.409688 ] } },
{ "type": "Feature", "properties": { "city": "Кореновск", "18": null, "19": 243.0, "21": null, "27": null, "33": null, "4": null, "6": null }, "geometry": { "type": "Point", "coordinates": [ 39.448033, 45.462742 ] } },
{ "type": "Feature", "properties": { "city": "Коркино", "18": null, "19": 102.0, "21": null, "27": null, "33": null, "4": null, "6": null }, "geometry": { "type": "Point", "coordinates": [ 61.393049, 54.892493 ] } },
{ "type": "Feature", "properties": { "city": "Королев", "18": null, "19": null, "21": 422.0, "27": null, "33": null, "4": null, "6": null }, "geometry": { "type": "Point", "coordinates": [ 37.815211, 55.918953 ] } },
{ "type": "Feature", "properties": { "city": "Королёв", "18": null, "19": null, "21": null, "27": 3054.0, "33": null, "4": null, "6": null }, "geometry": { "type": "Point", "coordinates": [ 37.815211, 55.918953 ] } },
{ "type": "Feature", "properties": { "city": "Короча", "18": null, "19": 41.0, "21": null, "27": null, "33": null, "4": null, "6": null }, "geometry": { "type": "Point", "coordinates": [ 37.196119, 50.811355 ] } },
{ "type": "Feature", "properties": { "city": "Костомукша", "18": null, "19": null, "21": 78.0, "27": null, "33": null, "4": null, "6": null }, "geometry": { "type": "Point", "coordinates": [ 30.596637, 64.587358 ] } },
{ "type": "Feature", "properties": { "city": "Кострома", "18": 110.0, "19": 736.0, "21": 158.0, "27": 1029.0, "33": 358.0, "4": 1102.0, "6": 787.0 }, "geometry": { "type": "Point", "coordinates": [ 40.926894, 57.767918 ] } },
{ "type": "Feature", "properties": { "city": "Котельнич", "18": null, "19": 107.0, "21": null, "27": null, "33": null, "4": null, "6": null }, "geometry": { "type": "Point", "coordinates": [ 48.346313, 58.305095 ] } },
{ "type": "Feature", "properties": { "city": "Котово", "18": null, "19": null, "21": 187.0, "27": null, "33": null, "4": null, "6": null }, "geometry": { "type": "Point", "coordinates": [ 44.801328, 50.322064 ] } },
{ "type": "Feature", "properties": { "city": "Котовск", "18": 47.0, "19": 77.0, "21": null, "27": null, "33": null, "4": null, "6": null }, "geometry": { "type": "Point", "coordinates": [ 41.50575, 52.59292 ] } },
{ "type": "Feature", "properties": { "city": "Кочубеевское", "18": null, "19": 108.0, "21": null, "27": null, "33": null, "4": null, "6": null }, "geometry": { "type": "Point", "coordinates": [ 41.82423, 44.690728 ] } },
{ "type": "Feature", "properties": { "city": "Красная Поляна", "18": null, "19": 35.0, "21": null, "27": null, "33": null, "4": null, "6": null }, "geometry": { "type": "Point", "coordinates": [ 51.147413, 56.241819 ] } },
{ "type": "Feature", "properties": { "city": "Красновишерск", "18": null, "19": 10.0, "21": null, "27": null, "33": null, "4": null, "6": null }, "geometry": { "type": "Point", "coordinates": [ 57.083301, 60.412825 ] } },
{ "type": "Feature", "properties": { "city": "Красногорск", "18": null, "19": null, "21": null, "27": null, "33": 390.0, "4": null, "6": null }, "geometry": { "type": "Point", "coordinates": [ 37.330399, 55.831003 ] } },
{ "type": "Feature", "properties": { "city": "Краснодар", "18": 2167.0, "19": 9592.0, "21": 18591.0, "27": 5076.0, "33": 4111.0, "4": 3402.0, "6": 4835.0 }, "geometry": { "type": "Point", "coordinates": [ 38.975313, 45.03547 ] } },
{ "type": "Feature", "properties": { "city": "Красное Поле", "18": null, "19": 88.0, "21": null, "27": null, "33": null, "4": null, "6": null }, "geometry": { "type": "Point", "coordinates": [ 40.693691, 44.894224 ] } },
{ "type": "Feature", "properties": { "city": "Краснокаменск", "18": 77.0, "19": 95.0, "21": 68.0, "27": 73.0, "33": null, "4": null, "6": null }, "geometry": { "type": "Point", "coordinates": [ 118.034146, 50.098683 ] } },
{ "type": "Feature", "properties": { "city": "Краснотуранск", "18": null, "19": 59.0, "21": null, "27": null, "33": null, "4": null, "6": null }, "geometry": { "type": "Point", "coordinates": [ 91.567756, 54.317175 ] } },
{ "type": "Feature", "properties": { "city": "Краснотурьинск", "18": null, "19": 77.0, "21": null, "27": null, "33": null, "4": null, "6": null }, "geometry": { "type": "Point", "coordinates": [ 60.193574, 59.763534 ] } },
{ "type": "Feature", "properties": { "city": "Красноуральск", "18": null, "19": 64.0, "21": null, "27": null, "33": null, "4": null, "6": null }, "geometry": { "type": "Point", "coordinates": [ 60.038749, 58.356726 ] } },
{ "type": "Feature", "properties": { "city": "Красноуфимск", "18": null, "19": 92.0, "21": 83.0, "27": null, "33": null, "4": null, "6": null }, "geometry": { "type": "Point", "coordinates": [ 57.770791, 56.617928 ] } },
{ "type": "Feature", "properties": { "city": "Красноярск", "18": 6778.0, "19": 4624.0, "21": 5503.0, "27": 8148.0, "33": 2120.0, "4": 2253.0, "6": 4661.0 }, "geometry": { "type": "Point", "coordinates": [ 92.852572, 56.010569 ] } },
{ "type": "Feature", "properties": { "city": "Красные Баки", "18": null, "19": 26.0, "21": null, "27": null, "33": null, "4": null, "6": null }, "geometry": { "type": "Point", "coordinates": [ 45.166619, 57.127364 ] } },
{ "type": "Feature", "properties": { "city": "Красный Чикой", "18": null, "19": null, "21": 40.0, "27": null, "33": null, "4": null, "6": null }, "geometry": { "type": "Point", "coordinates": [ 108.755618, 50.363943 ] } },
{ "type": "Feature", "properties": { "city": "Красный Яр", "18": null, "19": 97.0, "21": 37.0, "27": null, "33": null, "4": null, "6": null }, "geometry": { "type": "Point", "coordinates": [ 48.021312, 56.033435 ] } },
{ "type": "Feature", "properties": { "city": "Красный Яр", "18": null, "19": 97.0, "21": 37.0, "27": null, "33": null, "4": null, "6": null }, "geometry": { "type": "Point", "coordinates": [ 50.389343, 53.498062 ] } },
{ "type": "Feature", "properties": { "city": "Красный Яр", "18": null, "19": 97.0, "21": 37.0, "27": null, "33": null, "4": null, "6": null }, "geometry": { "type": "Point", "coordinates": [ 48.349233, 46.534259 ] } },
{ "type": "Feature", "properties": { "city": "Кропоткин", "18": null, "19": 264.0, "21": null, "27": null, "33": 206.0, "4": null, "6": null }, "geometry": { "type": "Point", "coordinates": [ 40.576003, 45.434693 ] } },
{ "type": "Feature", "properties": { "city": "Крутцы", "18": null, "19": 67.0, "21": null, "27": null, "33": null, "4": null, "6": null }, "geometry": { "type": "Point", "coordinates": [ 45.733851, 57.859335 ] } },
{ "type": "Feature", "properties": { "city": "Крымск", "18": null, "19": 452.0, "21": 215.0, "27": null, "33": null, "4": null, "6": null }, "geometry": { "type": "Point", "coordinates": [ 37.987894, 44.935414 ] } },
{ "type": "Feature", "properties": { "city": "Кстово", "18": 219.0, "19": null, "21": 230.0, "27": null, "33": null, "4": null, "6": null }, "geometry": { "type": "Point", "coordinates": [ 44.206805, 56.150665 ] } },
{ "type": "Feature", "properties": { "city": "Кубанский", "18": null, "19": 82.0, "21": null, "27": null, "33": null, "4": null, "6": null }, "geometry": { "type": "Point", "coordinates": [ 40.58009, 45.92922 ] } },
{ "type": "Feature", "properties": { "city": "Кудымкар", "18": null, "19": 108.0, "21": 191.0, "27": null, "33": null, "4": null, "6": null }, "geometry": { "type": "Point", "coordinates": [ 54.664183, 59.014548 ] } },
{ "type": "Feature", "properties": { "city": "Куеда", "18": null, "19": 33.0, "21": null, "27": null, "33": null, "4": null, "6": null }, "geometry": { "type": "Point", "coordinates": [ 55.591352, 56.430106 ] } },
{ "type": "Feature", "properties": { "city": "Кузнецк", "18": null, "19": 124.0, "21": null, "27": null, "33": null, "4": null, "6": null }, "geometry": { "type": "Point", "coordinates": [ 46.601174, 53.119335 ] } },
{ "type": "Feature", "properties": { "city": "Куйбышев", "18": 133.0, "19": 109.0, "21": null, "27": null, "33": null, "4": null, "6": null }, "geometry": { "type": "Point", "coordinates": [ 78.311111, 55.445972 ] } },
{ "type": "Feature", "properties": { "city": "Кулун", "18": null, "19": 39.0, "21": null, "27": null, "33": null, "4": null, "6": null }, "geometry": { "type": "Point", "coordinates": [ 89.783666, 55.332673 ] } },
{ "type": "Feature", "properties": { "city": "Кумены", "18": null, "19": 60.0, "21": null, "27": null, "33": null, "4": null, "6": null }, "geometry": { "type": "Point", "coordinates": [ 49.903076, 58.103851 ] } },
{ "type": "Feature", "properties": { "city": "Кунгур", "18": null, "19": 162.0, "21": 108.0, "27": null, "33": null, "4": null, "6": null }, "geometry": { "type": "Point", "coordinates": [ 56.944215, 57.42881 ] } },
{ "type": "Feature", "properties": { "city": "Курган", "18": null, "19": 437.0, "21": 245.0, "27": 1345.0, "33": 295.0, "4": 807.0, "6": 938.0 }, "geometry": { "type": "Point", "coordinates": [ 65.341118, 55.441004 ] } },
{ "type": "Feature", "properties": { "city": "Курсавка", "18": null, "19": 91.0, "21": null, "27": null, "33": null, "4": null, "6": null }, "geometry": { "type": "Point", "coordinates": [ 42.503563, 44.459468 ] } },
{ "type": "Feature", "properties": { "city": "Курск", "18": 1222.0, "19": 3494.0, "21": 1744.0, "27": 549.0, "33": 4371.0, "4": 2425.0, "6": 896.0 }, "geometry": { "type": "Point", "coordinates": [ 36.193015, 51.730846 ] } },
{ "type": "Feature", "properties": { "city": "Куртамыш", "18": null, "19": null, "21": 94.0, "27": null, "33": null, "4": null, "6": null }, "geometry": { "type": "Point", "coordinates": [ 64.42799, 54.910156 ] } },
{ "type": "Feature", "properties": { "city": "Кушнаренково", "18": null, "19": null, "21": 176.0, "27": null, "33": null, "4": null, "6": null }, "geometry": { "type": "Point", "coordinates": [ 55.33297, 55.1012 ] } },
{ "type": "Feature", "properties": { "city": "Кызыл", "18": null, "19": 42.0, "21": 844.0, "27": null, "33": 261.0, "4": 388.0, "6": 767.0 }, "geometry": { "type": "Point", "coordinates": [ 94.43799, 51.71989 ] } },
{ "type": "Feature", "properties": { "city": "Кяхта", "18": null, "19": 48.0, "21": null, "27": null, "33": null, "4": null, "6": null }, "geometry": { "type": "Point", "coordinates": [ 106.449903, 50.35522 ] } },
{ "type": "Feature", "properties": { "city": "Лабинск", "18": null, "19": 141.0, "21": null, "27": null, "33": 287.0, "4": null, "6": null }, "geometry": { "type": "Point", "coordinates": [ 40.723578, 44.635715 ] } },
{ "type": "Feature", "properties": { "city": "Лагань", "18": null, "19": 66.0, "21": 61.0, "27": null, "33": null, "4": null, "6": null }, "geometry": { "type": "Point", "coordinates": [ 47.354142, 45.392903 ] } },
{ "type": "Feature", "properties": { "city": "Лангепас", "18": null, "19": null, "21": 84.0, "27": null, "33": null, "4": null, "6": null }, "geometry": { "type": "Point", "coordinates": [ 75.180725, 61.253706 ] } },
{ "type": "Feature", "properties": { "city": "Ленинградская", "18": null, "19": 114.0, "21": null, "27": null, "33": null, "4": null, "6": null }, "geometry": { "type": "Point", "coordinates": [ 39.392886, 46.320553 ] } },
{ "type": "Feature", "properties": { "city": "Лениногорск", "18": null, "19": 86.0, "21": 109.0, "27": null, "33": null, "4": null, "6": null }, "geometry": { "type": "Point", "coordinates": [ 52.442676, 54.599028 ] } },
{ "type": "Feature", "properties": { "city": "Ленинск-Кузнецкий", "18": null, "19": 88.0, "21": 350.0, "27": null, "33": null, "4": null, "6": null }, "geometry": { "type": "Point", "coordinates": [ 86.162243, 54.663609 ] } },
{ "type": "Feature", "properties": { "city": "Ленинское", "18": null, "19": 23.0, "21": null, "27": null, "33": null, "4": null, "6": null }, "geometry": { "type": "Point", "coordinates": [ 132.622013, 47.932641 ] } },
{ "type": "Feature", "properties": { "city": "Ленск", "18": 96.0, "19": null, "21": null, "27": null, "33": null, "4": null, "6": null }, "geometry": { "type": "Point", "coordinates": [ 114.911853, 60.713735 ] } },
{ "type": "Feature", "properties": { "city": "Лермонтов", "18": null, "19": 209.0, "21": null, "27": null, "33": null, "4": null, "6": null }, "geometry": { "type": "Point", "coordinates": [ 42.973184, 44.10535 ] } },
{ "type": "Feature", "properties": { "city": "Лесной", "18": null, "19": null, "21": null, "27": 268.0, "33": null, "4": null, "6": null }, "geometry": { "type": "Point", "coordinates": [ 59.79863, 58.635513 ] } },
{ "type": "Feature", "properties": { "city": "Лесозаводск", "18": null, "19": 118.0, "21": null, "27": null, "33": null, "4": null, "6": null }, "geometry": { "type": "Point", "coordinates": [ 133.398221, 45.464809 ] } },
{ "type": "Feature", "properties": { "city": "Ливны", "18": null, "19": 112.0, "21": null, "27": null, "33": null, "4": null, "6": null }, "geometry": { "type": "Point", "coordinates": [ 37.60805, 52.426549 ] } },
{ "type": "Feature", "properties": { "city": "Лиман", "18": null, "19": null, "21": 25.0, "27": null, "33": null, "4": null, "6": null }, "geometry": { "type": "Point", "coordinates": [ 47.223824, 45.781843 ] } },
{ "type": "Feature", "properties": { "city": "Липецк", "18": 1235.0, "19": 1133.0, "21": 405.0, "27": 1856.0, "33": 428.0, "4": 1693.0, "6": null }, "geometry": { "type": "Point", "coordinates": [ 39.599229, 52.608826 ] } },
{ "type": "Feature", "properties": { "city": "Лисино-Корпус", "18": null, "19": null, "21": 99.0, "27": null, "33": null, "4": null, "6": null }, "geometry": { "type": "Point", "coordinates": [ 30.659806, 59.427952 ] } },
{ "type": "Feature", "properties": { "city": "Лиски", "18": null, "19": null, "21": null, "27": 150.0, "33": null, "4": null, "6": null }, "geometry": { "type": "Point", "coordinates": [ 39.497099, 50.987304 ] } },
{ "type": "Feature", "properties": { "city": "Локоть", "18": null, "19": null, "21": 101.0, "27": null, "33": null, "4": null, "6": null }, "geometry": { "type": "Point", "coordinates": [ 34.577036, 52.560927 ] } },
{ "type": "Feature", "properties": { "city": "Луга", "18": null, "19": 437.0, "21": null, "27": null, "33": 71.0, "4": null, "6": null }, "geometry": { "type": "Point", "coordinates": [ 29.847945, 58.735207 ] } },
{ "type": "Feature", "properties": { "city": "Лысьва", "18": null, "19": null, "21": null, "27": 112.0, "33": null, "4": null, "6": null }, "geometry": { "type": "Point", "coordinates": [ 57.811664, 58.100417 ] } },
{ "type": "Feature", "properties": { "city": "Лыткарино", "18": null, "19": 151.0, "21": null, "27": null, "33": null, "4": null, "6": null }, "geometry": { "type": "Point", "coordinates": [ 37.908986, 55.579302 ] } },
{ "type": "Feature", "properties": { "city": "Льгов", "18": null, "19": null, "21": 10.0, "27": null, "33": null, "4": null, "6": null }, "geometry": { "type": "Point", "coordinates": [ 35.257456, 51.655953 ] } },
{ "type": "Feature", "properties": { "city": "Люберцы", "18": 125.0, "19": 129.0, "21": null, "27": null, "33": 225.0, "4": null, "6": null }, "geometry": { "type": "Point", "coordinates": [ 37.893328, 55.676748 ] } },
{ "type": "Feature", "properties": { "city": "Лянтор", "18": null, "19": null, "21": 107.0, "27": null, "33": null, "4": null, "6": null }, "geometry": { "type": "Point", "coordinates": [ 72.155361, 61.620667 ] } },
{ "type": "Feature", "properties": { "city": "Магадан", "18": 52.0, "19": 44.0, "21": 2275.0, "27": null, "33": 103.0, "4": null, "6": 255.0 }, "geometry": { "type": "Point", "coordinates": [ 150.808586, 59.565155 ] } },
{ "type": "Feature", "properties": { "city": "Магнитогорск", "18": 1557.0, "19": 739.0, "21": 7025.0, "27": 2407.0, "33": null, "4": null, "6": null }, "geometry": { "type": "Point", "coordinates": [ 58.980291, 53.407163 ] } },
{ "type": "Feature", "properties": { "city": "Майкоп", "18": 193.0, "19": 1144.0, "21": 2252.0, "27": 1782.0, "33": 2103.0, "4": 413.0, "6": 1425.0 }, "geometry": { "type": "Point", "coordinates": [ 40.105852, 44.606683 ] } },
{ "type": "Feature", "properties": { "city": "Майский", "18": null, "19": 615.0, "21": 1115.0, "27": null, "33": null, "4": null, "6": null }, "geometry": { "type": "Point", "coordinates": [ 44.051756, 43.628254 ] } },
{ "type": "Feature", "properties": { "city": "Майский", "18": null, "19": 615.0, "21": 1115.0, "27": null, "33": null, "4": null, "6": null }, "geometry": { "type": "Point", "coordinates": [ 36.455233, 50.523238 ] } },
{ "type": "Feature", "properties": { "city": "Мари-Турек", "18": null, "19": 4.0, "21": null, "27": null, "33": null, "4": null, "6": null }, "geometry": { "type": "Point", "coordinates": [ 49.622164, 56.788707 ] } },
{ "type": "Feature", "properties": { "city": "Мариинск", "18": null, "19": 115.0, "21": null, "27": null, "33": null, "4": null, "6": null }, "geometry": { "type": "Point", "coordinates": [ 87.742263, 56.206957 ] } },
{ "type": "Feature", "properties": { "city": "Маркс", "18": null, "19": 131.0, "21": 73.0, "27": null, "33": null, "4": null, "6": null }, "geometry": { "type": "Point", "coordinates": [ 46.740144, 51.712591 ] } },
{ "type": "Feature", "properties": { "city": "Массандра", "18": null, "19": 137.0, "21": null, "27": null, "33": null, "4": null, "6": null }, "geometry": { "type": "Point", "coordinates": [ 34.186035, 44.514701 ] } },
{ "type": "Feature", "properties": { "city": "Махачкала", "18": 800.0, "19": 1269.0, "21": 4193.0, "27": 322.0, "33": 3776.0, "4": 1724.0, "6": 2993.0 }, "geometry": { "type": "Point", "coordinates": [ 47.504745, 42.9831 ] } },
{ "type": "Feature", "properties": { "city": "Мглин", "18": null, "19": 1.0, "21": null, "27": null, "33": null, "4": null, "6": null }, "geometry": { "type": "Point", "coordinates": [ 32.847815, 53.061074 ] } },
{ "type": "Feature", "properties": { "city": "Мегион", "18": 62.0, "19": 75.0, "21": 75.0, "27": null, "33": null, "4": null, "6": null }, "geometry": { "type": "Point", "coordinates": [ 76.102621, 61.03289 ] } },
{ "type": "Feature", "properties": { "city": "Междуреченск", "18": null, "19": null, "21": 1842.0, "27": null, "33": null, "4": null, "6": null }, "geometry": { "type": "Point", "coordinates": [ 88.080398, 53.685199 ] } },
{ "type": "Feature", "properties": { "city": "Междуреченский", "18": null, "19": 36.0, "21": null, "27": null, "33": null, "4": null, "6": null }, "geometry": { "type": "Point", "coordinates": [ 65.900364, 59.596753 ] } },
{ "type": "Feature", "properties": { "city": "Мелеуз", "18": 96.0, "19": 702.0, "21": 32.0, "27": 18.0, "33": null, "4": null, "6": null }, "geometry": { "type": "Point", "coordinates": [ 55.927672, 52.959143 ] } },
{ "type": "Feature", "properties": { "city": "Мельниково", "18": null, "19": 94.0, "21": null, "27": null, "33": null, "4": null, "6": null }, "geometry": { "type": "Point", "coordinates": [ 84.079849, 56.55621 ] } },
{ "type": "Feature", "properties": { "city": "Мензелинск", "18": null, "19": 76.0, "21": null, "27": null, "33": 138.0, "4": null, "6": null }, "geometry": { "type": "Point", "coordinates": [ 53.101429, 55.719972 ] } },
{ "type": "Feature", "properties": { "city": "Миасс", "18": null, "19": 512.0, "21": 456.0, "27": 1045.0, "33": 301.0, "4": null, "6": null }, "geometry": { "type": "Point", "coordinates": [ 60.109599, 55.050432 ] } },
{ "type": "Feature", "properties": { "city": "Минеральные Воды", "18": null, "19": 189.0, "21": null, "27": 433.0, "33": null, "4": null, "6": null }, "geometry": { "type": "Point", "coordinates": [ 43.13834, 44.208806 ] } },
{ "type": "Feature", "properties": { "city": "Минусинск", "18": null, "19": 146.0, "21": null, "27": null, "33": null, "4": null, "6": null }, "geometry": { "type": "Point", "coordinates": [ 91.686981, 53.710015 ] } },
{ "type": "Feature", "properties": { "city": "Мирный", "18": 59.0, "19": null, "21": 6906.0, "27": 55.0, "33": null, "4": null, "6": null }, "geometry": { "type": "Point", "coordinates": [ 113.978701, 62.541028 ] } },
{ "type": "Feature", "properties": { "city": "Мирный", "18": 59.0, "19": null, "21": 6906.0, "27": 55.0, "33": null, "4": null, "6": null }, "geometry": { "type": "Point", "coordinates": [ 40.326613, 62.761555 ] } },
{ "type": "Feature", "properties": { "city": "Мирный", "18": 59.0, "19": null, "21": 6906.0, "27": 55.0, "33": null, "4": null, "6": null }, "geometry": { "type": "Point", "coordinates": [ 61.733762, 55.251501 ] } },
{ "type": "Feature", "properties": { "city": "Митякинская", "18": null, "19": 46.0, "21": null, "27": null, "33": null, "4": null, "6": null }, "geometry": { "type": "Point", "coordinates": [ 39.785926, 48.609866 ] } },
{ "type": "Feature", "properties": { "city": "Михайловка", "18": 158.0, "19": null, "21": 99.0, "27": null, "33": null, "4": null, "6": null }, "geometry": { "type": "Point", "coordinates": [ 43.23445, 50.07938 ] } },
{ "type": "Feature", "properties": { "city": "Михайловка", "18": 158.0, "19": null, "21": 99.0, "27": null, "33": null, "4": null, "6": null }, "geometry": { "type": "Point", "coordinates": [ 55.889629, 54.807658 ] } },
{ "type": "Feature", "properties": { "city": "Михайловск", "18": null, "19": 120.0, "21": null, "27": null, "33": null, "4": null, "6": null }, "geometry": { "type": "Point", "coordinates": [ 59.125926, 56.444862 ] } },
{ "type": "Feature", "properties": { "city": "Михайловск", "18": null, "19": 120.0, "21": null, "27": null, "33": null, "4": null, "6": null }, "geometry": { "type": "Point", "coordinates": [ 42.028803, 45.129667 ] } },
{ "type": "Feature", "properties": { "city": "Мичуринск", "18": null, "19": 1397.0, "21": 898.0, "27": 656.0, "33": null, "4": null, "6": null }, "geometry": { "type": "Point", "coordinates": [ 40.49802, 52.893913 ] } },
{ "type": "Feature", "properties": { "city": "Мичуринский", "18": null, "19": 221.0, "21": null, "27": null, "33": null, "4": null, "6": null }, "geometry": { "type": "Point", "coordinates": [ 34.235424, 53.274777 ] } },
{ "type": "Feature", "properties": { "city": "Мичуринское", "18": null, "19": 86.0, "21": 73.0, "27": null, "33": null, "4": null, "6": null }, "geometry": { "type": "Point", "coordinates": [ 29.871876, 60.564878 ] } },
{ "type": "Feature", "properties": { "city": "Можга", "18": null, "19": 68.0, "21": null, "27": null, "33": null, "4": null, "6": null }, "geometry": { "type": "Point", "coordinates": [ 52.213022, 56.440244 ] } },
{ "type": "Feature", "properties": { "city": "Моздок", "18": null, "19": 109.0, "21": null, "27": 105.0, "33": null, "4": null, "6": null }, "geometry": { "type": "Point", "coordinates": [ 44.653887, 43.735433 ] } },
{ "type": "Feature", "properties": { "city": "Моздок", "18": null, "19": 109.0, "21": null, "27": 105.0, "33": null, "4": null, "6": null }, "geometry": { "type": "Point", "coordinates": [ 44.653887, 43.735433 ] } },
{ "type": "Feature", "properties": { "city": "Мокшан", "18": null, "19": 71.0, "21": null, "27": null, "33": null, "4": null, "6": null }, "geometry": { "type": "Point", "coordinates": [ 44.608109, 53.440114 ] } },
{ "type": "Feature", "properties": { "city": "Молодежный", "18": null, "19": null, "21": 165.0, "27": null, "33": null, "4": null, "6": null }, "geometry": { "type": "Point", "coordinates": [ 104.417761, 52.232653 ] } },
{ "type": "Feature", "properties": { "city": "Молочное", "18": null, "19": 61.0, "21": null, "27": null, "33": null, "4": null, "6": null }, "geometry": { "type": "Point", "coordinates": [ 39.676897, 59.289043 ] } },
{ "type": "Feature", "properties": { "city": "Мончегорск", "18": null, "19": null, "21": null, "27": 111.0, "33": null, "4": null, "6": null }, "geometry": { "type": "Point", "coordinates": [ 32.937071, 67.938921 ] } },
{ "type": "Feature", "properties": { "city": "Москва", "18": 14212.0, "19": 26534.0, "21": 28398.0, "27": 60524.0, "33": 12298.0, "4": 17224.0, "6": 18605.0 }, "geometry": { "type": "Point", "coordinates": [ 37.617644, 55.755819 ] } },
{ "type": "Feature", "properties": { "city": "Московское", "18": null, "19": 98.0, "21": null, "27": null, "33": null, "4": null, "6": null }, "geometry": { "type": "Point", "coordinates": [ 41.918652, 45.284999 ] } },
{ "type": "Feature", "properties": { "city": "Муравленко", "18": null, "19": null, "21": 69.0, "27": null, "33": null, "4": null, "6": null }, "geometry": { "type": "Point", "coordinates": [ 74.494457, 63.795285 ] } },
{ "type": "Feature", "properties": { "city": "Мурманск", "18": null, "19": 1879.0, "21": 1807.0, "27": 442.0, "33": 245.0, "4": 420.0, "6": 1104.0 }, "geometry": { "type": "Point", "coordinates": [ 33.074918, 68.970663 ] } },
{ "type": "Feature", "properties": { "city": "Муром", "18": 402.0, "19": null, "21": null, "27": null, "33": 289.0, "4": null, "6": null }, "geometry": { "type": "Point", "coordinates": [ 42.052411, 55.579174 ] } },
{ "type": "Feature", "properties": { "city": "Мухоршибирь", "18": null, "19": null, "21": 56.0, "27": null, "33": null, "4": null, "6": null }, "geometry": { "type": "Point", "coordinates": [ 107.823679, 51.047343 ] } },
{ "type": "Feature", "properties": { "city": "Мценск", "18": null, "19": 134.0, "21": null, "27": null, "33": null, "4": null, "6": null }, "geometry": { "type": "Point", "coordinates": [ 36.575006, 53.278939 ] } },
{ "type": "Feature", "properties": { "city": "Мыски", "18": null, "19": null, "21": null, "27": 158.0, "33": null, "4": null, "6": null }, "geometry": { "type": "Point", "coordinates": [ 87.805747, 53.712514 ] } },
{ "type": "Feature", "properties": { "city": "Мытищи", "18": 1084.0, "19": 446.0, "21": 318.0, "27": 1423.0, "33": null, "4": null, "6": 1890.0 }, "geometry": { "type": "Point", "coordinates": [ 37.736743, 55.909968 ] } },
{ "type": "Feature", "properties": { "city": "Набережные Челны", "18": null, "19": 426.0, "21": 859.0, "27": 1560.0, "33": 423.0, "4": null, "6": null }, "geometry": { "type": "Point", "coordinates": [ 52.403662, 55.741272 ] } },
{ "type": "Feature", "properties": { "city": "Нагорный", "18": null, "19": 114.0, "21": null, "27": null, "33": null, "4": null, "6": null }, "geometry": { "type": "Point", "coordinates": [ 30.474627, 56.334517 ] } },
{ "type": "Feature", "properties": { "city": "Надеждино", "18": null, "19": 39.0, "21": null, "27": null, "33": null, "4": null, "6": null }, "geometry": { "type": "Point", "coordinates": [ 50.373479, 54.117218 ] } },
{ "type": "Feature", "properties": { "city": "Назрань", "18": null, "19": null, "21": 667.0, "27": null, "33": 169.0, "4": 1538.0, "6": 2307.0 }, "geometry": { "type": "Point", "coordinates": [ 44.768485, 43.231409 ] } },
{ "type": "Feature", "properties": { "city": "Называевск", "18": null, "19": 57.0, "21": null, "27": null, "33": null, "4": null, "6": null }, "geometry": { "type": "Point", "coordinates": [ 71.349186, 55.564821 ] } },
{ "type": "Feature", "properties": { "city": "Нальчик", "18": 558.0, "19": 1975.0, "21": 1017.0, "27": 1493.0, "33": 2706.0, "4": 1633.0, "6": 2454.0 }, "geometry": { "type": "Point", "coordinates": [ 43.607081, 43.485259 ] } },
{ "type": "Feature", "properties": { "city": "Наро-Фоминск", "18": null, "19": 133.0, "21": 92.0, "27": null, "33": null, "4": null, "6": null }, "geometry": { "type": "Point", "coordinates": [ 36.72285, 55.383838 ] } },
{ "type": "Feature", "properties": { "city": "Нарьян-Мар", "18": 49.0, "19": 36.0, "21": null, "27": 39.0, "33": null, "4": null, "6": null }, "geometry": { "type": "Point", "coordinates": [ 53.006926, 67.63805 ] } },
{ "type": "Feature", "properties": { "city": "Находка", "18": 194.0, "19": 103.0, "21": 153.0, "27": null, "33": null, "4": null, "6": null }, "geometry": { "type": "Point", "coordinates": [ 132.89282, 42.824043 ] } },
{ "type": "Feature", "properties": { "city": "Невинномысск", "18": 1079.0, "19": 426.0, "21": 138.0, "27": null, "33": null, "4": null, "6": null }, "geometry": { "type": "Point", "coordinates": [ 41.936061, 44.638287 ] } },
{ "type": "Feature", "properties": { "city": "Нерехта", "18": null, "19": 69.0, "21": null, "27": null, "33": null, "4": null, "6": null }, "geometry": { "type": "Point", "coordinates": [ 40.572563, 57.460544 ] } },
{ "type": "Feature", "properties": { "city": "Нерчинск", "18": null, "19": 168.0, "21": null, "27": null, "33": null, "4": null, "6": null }, "geometry": { "type": "Point", "coordinates": [ 116.585693, 51.977058 ] } },
{ "type": "Feature", "properties": { "city": "Нерюнгри", "18": 98.0, "19": null, "21": 1708.0, "27": 91.0, "33": null, "4": null, "6": null }, "geometry": { "type": "Point", "coordinates": [ 124.712311, 56.657717 ] } },
{ "type": "Feature", "properties": { "city": "Нефтегорск", "18": 54.0, "19": null, "21": 67.0, "27": null, "33": null, "4": null, "6": null }, "geometry": { "type": "Point", "coordinates": [ 51.163808, 52.797221 ] } },
{ "type": "Feature", "properties": { "city": "Нефтекамск", "18": null, "19": 327.0, "21": 534.0, "27": 25.0, "33": null, "4": null, "6": null }, "geometry": { "type": "Point", "coordinates": [ 54.247751, 56.088483 ] } },
{ "type": "Feature", "properties": { "city": "Нефтеюганск", "18": 124.0, "19": 3.0, "21": 347.0, "27": 155.0, "33": null, "4": null, "6": null }, "geometry": { "type": "Point", "coordinates": [ 72.616403, 61.088255 ] } },
{ "type": "Feature", "properties": { "city": "Нижневартовск", "18": 265.0, "19": 172.0, "21": 4107.0, "27": 17.0, "33": 80.0, "4": null, "6": 47.0 }, "geometry": { "type": "Point", "coordinates": [ 76.558902, 60.938545 ] } },
{ "type": "Feature", "properties": { "city": "Нижнекамск", "18": 3586.0, "19": 842.0, "21": null, "27": 721.0, "33": 381.0, "4": null, "6": null }, "geometry": { "type": "Point", "coordinates": [ 51.819712, 55.637576 ] } },
{ "type": "Feature", "properties": { "city": "Нижний Ломов", "18": null, "19": 93.0, "21": null, "27": null, "33": null, "4": null, "6": null }, "geometry": { "type": "Point", "coordinates": [ 43.672999, 53.530049 ] } },
{ "type": "Feature", "properties": { "city": "Нижний Новгород", "18": 1876.0, "19": 3899.0, "21": 3879.0, "27": 5184.0, "33": 4773.0, "4": 5667.0, "6": 5338.0 }, "geometry": { "type": "Point", "coordinates": [ 44.006516, 56.326797 ] } },
{ "type": "Feature", "properties": { "city": "Нижний Тагил", "18": 94.0, "19": 160.0, "21": 135.0, "27": 416.0, "33": null, "4": null, "6": null }, "geometry": { "type": "Point", "coordinates": [ 59.971474, 57.907562 ] } },
{ "type": "Feature", "properties": { "city": "Нижняя Салда", "18": null, "19": 47.0, "21": null, "27": null, "33": null, "4": null, "6": null }, "geometry": { "type": "Point", "coordinates": [ 60.716331, 58.07149 ] } },
{ "type": "Feature", "properties": { "city": "Нижняя Тура", "18": null, "19": null, "21": 214.0, "27": null, "33": null, "4": null, "6": null }, "geometry": { "type": "Point", "coordinates": [ 59.851325, 58.631072 ] } },
{ "type": "Feature", "properties": { "city": "Никель", "18": null, "19": null, "21": 50.0, "27": null, "33": null, "4": null, "6": null }, "geometry": { "type": "Point", "coordinates": [ 30.210065, 69.410035 ] } },
{ "type": "Feature", "properties": { "city": "Николаевск-на-Амуре", "18": null, "19": null, "21": 37.0, "27": null, "33": null, "4": null, "6": null }, "geometry": { "type": "Point", "coordinates": [ 140.713795, 53.14025 ] } },
{ "type": "Feature", "properties": { "city": "Никологоры", "18": null, "19": 72.0, "21": null, "27": null, "33": null, "4": null, "6": null }, "geometry": { "type": "Point", "coordinates": [ 41.993895, 56.140479 ] } },
{ "type": "Feature", "properties": { "city": "Никольск", "18": 66.0, "19": null, "21": null, "27": null, "33": null, "4": null, "6": null }, "geometry": { "type": "Point", "coordinates": [ 45.45849, 59.530416 ] } },
{ "type": "Feature", "properties": { "city": "Никольск", "18": 66.0, "19": null, "21": null, "27": null, "33": null, "4": null, "6": null }, "geometry": { "type": "Point", "coordinates": [ 46.084356, 53.71447 ] } },
{ "type": "Feature", "properties": { "city": "Новоалександрово", "18": null, "19": null, "21": 55.0, "27": null, "33": null, "4": null, "6": null }, "geometry": { "type": "Point", "coordinates": [ 40.263542, 56.221324 ] } },
{ "type": "Feature", "properties": { "city": "Новоалександровск", "18": null, "19": 46.0, "21": null, "27": null, "33": null, "4": null, "6": null }, "geometry": { "type": "Point", "coordinates": [ 41.215388, 45.49331 ] } },
{ "type": "Feature", "properties": { "city": "Новоалтайск", "18": null, "19": null, "21": null, "27": 125.0, "33": null, "4": null, "6": null }, "geometry": { "type": "Point", "coordinates": [ 83.931079, 53.412021 ] } },
{ "type": "Feature", "properties": { "city": "Нововаршавка", "18": null, "19": 35.0, "21": null, "27": null, "33": null, "4": null, "6": null }, "geometry": { "type": "Point", "coordinates": [ 74.692374, 54.174323 ] } },
{ "type": "Feature", "properties": { "city": "Новодвинск", "18": 22.0, "19": 46.0, "21": null, "27": null, "33": null, "4": null, "6": null }, "geometry": { "type": "Point", "coordinates": [ 40.82083, 64.413687 ] } },
{ "type": "Feature", "properties": { "city": "Новозыбков", "18": null, "19": null, "21": null, "27": 38.0, "33": null, "4": null, "6": null }, "geometry": { "type": "Point", "coordinates": [ 31.933231, 52.536723 ] } },
{ "type": "Feature", "properties": { "city": "Новокузнецк", "18": 1058.0, "19": 440.0, "21": 7786.0, "27": 1441.0, "33": 381.0, "4": null, "6": null }, "geometry": { "type": "Point", "coordinates": [ 87.136053, 53.757553 ] } },
{ "type": "Feature", "properties": { "city": "Новокуйбышевск", "18": 862.0, "19": 180.0, "21": null, "27": null, "33": null, "4": null, "6": null }, "geometry": { "type": "Point", "coordinates": [ 49.947776, 53.099469 ] } },
{ "type": "Feature", "properties": { "city": "Новолеушковская", "18": null, "19": 74.0, "21": null, "27": null, "33": null, "4": null, "6": null }, "geometry": { "type": "Point", "coordinates": [ 39.987768, 46.000141 ] } },
{ "type": "Feature", "properties": { "city": "Новомичуринск", "18": null, "19": 97.0, "21": null, "27": null, "33": null, "4": null, "6": null }, "geometry": { "type": "Point", "coordinates": [ 39.750865, 54.034574 ] } },
{ "type": "Feature", "properties": { "city": "Новомосковск", "18": 1415.0, "19": 88.0, "21": null, "27": 241.0, "33": null, "4": 1191.0, "6": null }, "geometry": { "type": "Point", "coordinates": [ 38.291057, 54.010914 ] } },
{ "type": "Feature", "properties": { "city": "Новоомский", "18": null, "19": 76.0, "21": null, "27": null, "33": null, "4": null, "6": null }, "geometry": { "type": "Point", "coordinates": [ 73.301, 54.841371 ] } },
{ "type": "Feature", "properties": { "city": "Новоорск", "18": null, "19": null, "21": 43.0, "27": null, "33": null, "4": null, "6": null }, "geometry": { "type": "Point", "coordinates": [ 58.986337, 51.382956 ] } },
{ "type": "Feature", "properties": { "city": "Новороссийск", "18": 401.0, "19": null, "21": 415.0, "27": null, "33": 111.0, "4": null, "6": null }, "geometry": { "type": "Point", "coordinates": [ 37.768813, 44.723771 ] } },
{ "type": "Feature", "properties": { "city": "Новосибирск", "18": 2729.0, "19": 5802.0, "21": 2750.0, "27": 8821.0, "33": 2781.0, "4": 6425.0, "6": 5557.0 }, "geometry": { "type": "Point", "coordinates": [ 82.92043, 55.030204 ] } },
{ "type": "Feature", "properties": { "city": "Новотроицк", "18": 572.0, "19": 99.0, "21": null, "27": null, "33": null, "4": null, "6": null }, "geometry": { "type": "Point", "coordinates": [ 58.299683, 51.196355 ] } },
{ "type": "Feature", "properties": { "city": "Новотроицкая", "18": null, "19": 142.0, "21": null, "27": null, "33": null, "4": null, "6": null }, "geometry": { "type": "Point", "coordinates": [ 41.534712, 45.372392 ] } },
{ "type": "Feature", "properties": { "city": "Новоузенск", "18": null, "19": 172.0, "21": null, "27": null, "33": null, "4": null, "6": null }, "geometry": { "type": "Point", "coordinates": [ 48.13538, 50.462479 ] } },
{ "type": "Feature", "properties": { "city": "Новоульяновск", "18": 64.0, "19": null, "21": null, "27": null, "33": null, "4": null, "6": null }, "geometry": { "type": "Point", "coordinates": [ 48.384824, 54.151718 ] } },
{ "type": "Feature", "properties": { "city": "Новоуральск", "18": null, "19": 79.0, "21": null, "27": 76.0, "33": null, "4": null, "6": null }, "geometry": { "type": "Point", "coordinates": [ 60.095613, 57.247235 ] } },
{ "type": "Feature", "properties": { "city": "Новочебоксарск", "18": 214.0, "19": null, "21": null, "27": null, "33": 505.0, "4": null, "6": null }, "geometry": { "type": "Point", "coordinates": [ 47.476807, 56.108738 ] } },